~Version ---------------------------------------------------
VERS.     2.0 : CWLS log ASCII Standard -VERSION 2.0
WRAP.      NO : ONE LINE PER DEPTH STEP
~Well ------------------------------------------------------
STRT.M                           458.4 : First Index Value
STOP.M                       2563.4002 : Last Index Value
STEP.M             0.10000000000002274 : Frame Spacing
NULL.                          -999.25 : Absent Value
WELL.                           P05-05 : Well Name
FLD .     FINDER_composites_22-02-2005 : Field Name
CNTY.                                  : County
STAT.                                  : State
CTRY.                                  : Country
LOC .                                  : Location
API .                                  : API Number
DATE.                                  : Date
COMP.                              MOB : Company Name
SRVC.                                  : Service Company
~Curves ----------------------------------------------------
DEPT.M         : 
GR  .GAPI      : 
DT  .US/F      : 
RHOB.G/C3      : 
DRHO.G/C3      : 
NPHI.V/V       : 
~Params ----------------------------------------------------
TDD .M            2575.0 : Total Depth (Driller)
UBID.               7552 : Unique Borehole Id
PDAT.     Mean Sea Level : Permanent Datum
EPD .M               0.0 : Elevation of Permanent Datum (PDAT) above Mean Sea Level
LMF .                    : Logging Measured From (Name of Logging Elevation Reference)
APD .M              36.4 : Elevation of Depth Reference (LMF) Above Permanent Datum
~Other -----------------------------------------------------
composite_curve_qc
~ASCII -----------------------------------------------------
# ...
     1142.4     20.896     98.149     2.3306  -0.004037    0.30753
     1142.5     21.458     98.421     2.3315  -0.004669    0.30195
     1142.6      22.91     98.786      2.335  -0.005829     0.2973
     1142.7     24.473      99.27     2.3426  -0.007126    0.29497
     1142.8       25.6     99.711     2.3553  -0.007754    0.29326
     1142.9     26.038      99.97     2.3701  -0.007319    0.29442
       1143     26.257     100.01     2.3832  -0.006332    0.29777
     1143.1     26.758     99.866     2.3916  -0.005847    0.29823
     1143.2     27.065     99.602     2.3942  -0.006474    0.29268
     1143.3     26.685      99.28     2.3924  -0.007746    0.27587
     1143.4     25.853     98.933     2.3886  -0.008811    0.25333
     1143.5     24.832     98.612     2.3838  -0.009202    0.24893
     1143.6     23.828     98.379     2.3774  -0.008856    0.26613
     1143.7     23.273      98.22     2.3686   -0.00848    0.28083
     1143.8     23.554      98.07     2.3577  -0.009335    0.28329
     1143.9     24.583      97.97     2.3474  -0.011491    0.28129
       1144     25.934     98.017     2.3415  -0.013542    0.27434
     1144.1      27.23     98.141     2.3421  -0.014158    0.25665
     1144.2     28.005      98.24     2.3483  -0.012913    0.24115
     1144.3      27.84     98.348     2.3573  -0.010294    0.24775
     1144.4     26.868     98.488     2.3655  -0.007357    0.26868
     1144.5     25.537     98.572     2.3708  -0.005201    0.28517
     1144.6     24.234     98.501     2.3731  -0.004526    0.29462
     1144.7     23.365     98.302     2.3731  -0.005263    0.29936
     1144.8     22.889     98.108     2.3716  -0.006355    0.29834
     1144.9     22.438         98     2.3693  -0.006532    0.28778
       1145      22.29      97.92     2.3669  -0.005174    0.26457
     1145.1     22.802     97.845     2.3659  -0.002254    0.24551
     1145.2     23.781     97.894     2.3682   0.001619    0.25815
     1145.3     25.076     98.138     2.3737   0.004975    0.28947
     1145.4     26.331      98.49     2.3811   0.006577    0.30706
     1145.5     26.788     98.804     2.3889   0.006433    0.30434
     1145.6     26.764      99.07     2.3969   0.005612    0.29405
     1145.7     26.735     99.255      2.403     0.0052    0.28706
     1145.8      26.33     99.172     2.4023   0.005683     0.2869
     1145.9     26.151      98.89     2.3962   0.006901    0.29101
       1146     26.943     98.592     2.3894   0.008306    0.29623
     1146.1     27.917     98.282      2.384   0.009428    0.30093
     1146.2     28.915         98      2.383   0.010347    0.30225
     1146.3     30.223     97.851     2.3877   0.011184    0.29882
     1146.4     30.667     97.804     2.3937   0.011604    0.29518
     1146.5     29.788     97.756      2.397   0.010984    0.29286
     1146.6     28.464     97.669     2.3973   0.008369    0.28988
     1146.7     27.341       97.6      2.395   0.003424    0.28798
     1146.8     26.475     97.592     2.3924  -0.002809    0.28767
     1146.9     25.841      97.62     2.3924  -0.008159    0.28153
       1147     25.505      97.61     2.3936  -0.011321    0.26022
     1147.1     25.123     97.505     2.3936  -0.012611    0.23958
     1147.2     24.454     97.343     2.3919  -0.013044    0.24943
     1147.3     24.755     97.315     2.3886   -0.01357    0.27201
     1147.4     26.513     97.495     2.3857  -0.014476    0.28041
     1147.5     28.207     97.694     2.3856  -0.015279    0.28203
     1147.6     28.719     97.703     2.3887  -0.015264    0.28491
     1147.7      27.94     97.549     2.3928  -0.014089    0.28935
     1147.8     26.181     97.481     2.3959  -0.012088    0.29442
     1147.9     24.003     97.517     2.3966  -0.009633    0.29811
       1148     22.395     97.528      2.395  -0.007091    0.30029
     1148.1     22.419     97.558     2.3915  -0.004928    0.30456
     1148.2     23.503     97.607     2.3863  -0.004529    0.30566
     1148.3       24.3     97.665     2.3802  -0.006292    0.29831
     1148.4     25.305     97.848     2.3758  -0.008862    0.29134
     1148.5     26.202     98.051     2.3756   -0.01042    0.28887
     1148.6     26.281     98.097     2.3788  -0.010067    0.28638
     1148.7     26.615     98.252     2.3831  -0.007828    0.28657
     1148.8     27.322     98.578     2.3862  -0.005031    0.28946
     1148.9     27.409     98.785     2.3877  -0.003284    0.29076
       1149      27.92     98.854     2.3872  -0.002559    0.28956
     1149.1     28.746     98.793      2.386  -0.002292    0.28851
     1149.2     28.488     98.633      2.386  -0.001672    0.29148
     1149.3     27.831     98.471     2.3865  -0.000269    0.29568
     1149.4     27.513     98.377     2.3863   0.000898    0.29709
     1149.5     26.999     98.299     2.3853   0.000459    0.29651
     1149.6     26.467      98.24     2.3834  -0.001302    0.29692
     1149.7     26.395     98.213     2.3811  -0.003397    0.30089
     1149.8     26.925     98.196     2.3792  -0.005409    0.30632
     1149.9     27.778     98.108     2.3795  -0.006224    0.31009
       1150     28.503     97.864     2.3821   -0.00577    0.30973
     1150.1     28.826     97.512     2.3846    -0.0055    0.30527
     1150.2     28.086     97.226     2.3853  -0.005608    0.29616
     1150.3     26.277     97.123     2.3838  -0.005578    0.27849
     1150.4     24.677     97.089     2.3806  -0.005829    0.25199
     1150.5     23.724     97.063     2.3771  -0.006478    0.24032
     1150.6     23.306     97.081     2.3756  -0.007147     0.2606
     1150.7     23.951     97.189     2.3774  -0.007655    0.28009
     1150.8     24.838     97.364     2.3816  -0.007854    0.28062
     1150.9     24.846     97.584     2.3858   -0.00759     0.2677
       1151     25.316     97.956     2.3898  -0.006971    0.24214
     1151.1     26.407     98.387     2.3942  -0.006275    0.21663
     1151.2     27.084     98.588     2.3997  -0.005514    0.21654
     1151.3     28.233     98.549     2.4059  -0.004237    0.24659
     1151.4     29.553     98.343     2.4113  -0.002574    0.28711
     1151.5      29.49     98.041     2.4138  -0.001282    0.30918
     1151.6     28.927     97.732     2.4141  -0.000727    0.31186
     1151.7     28.572     97.435     2.4129  -0.001279    0.30502
     1151.8     27.878      97.15     2.4103  -0.002755     0.2951
     1151.9     27.194     96.995     2.4086   -0.00385    0.28554
       1152     26.783     97.021     2.4074  -0.004594    0.27817
     1152.1     26.381     97.088     2.4036  -0.006435    0.27332
     1152.2     26.407     97.087     2.3977  -0.009248    0.27235
     1152.3      26.92     97.017     2.3915  -0.012216    0.27374
     1152.4     27.144     96.965     2.3859   -0.01484    0.26863
     1152.5     26.875     96.967     2.3824  -0.016258     0.2485
     1152.6     26.318     96.926     2.3821  -0.016107    0.22207
     1152.7     25.661     96.748     2.3847  -0.014863    0.21295
     1152.8     25.314     96.578     2.3902  -0.012687    0.22776
     1152.9      25.57     96.595     2.3979  -0.009732    0.24322
       1153     26.262     96.755      2.406  -0.006358    0.24085
     1153.1      27.07     96.928     2.4123  -0.002968    0.23772
     1153.2      27.76     97.057     2.4156  -0.000574    0.24323
     1153.3     28.272     97.213      2.416  -0.000343    0.24165
     1153.4       28.6     97.488     2.4139  -0.002233    0.24375
     1153.5     28.586      97.82     2.4103  -0.005182    0.26268
     1153.6     27.943     98.041     2.4065  -0.007942    0.27965
     1153.7     26.659     98.104     2.4035  -0.009301    0.28343
     1153.8     25.266      98.07     2.4011  -0.008798    0.28017
     1153.9     24.547     97.946     2.3979  -0.007191    0.27004
       1154     24.943     97.712     2.3941   -0.00557    0.25133
     1154.1     26.328     97.392     2.3911  -0.004311    0.23886
     1154.2     28.145     97.074     2.3903  -0.003277    0.25074
     1154.3     29.652      96.88     2.3912  -0.002386    0.27567
