~Version ---------------------------------------------------
VERS.     2.0 : CWLS log ASCII Standard -VERSION 2.0
WRAP.      NO : ONE LINE PER DEPTH STEP
~Well ------------------------------------------------------
STRT.M                           458.4 : First Index Value
STOP.M                       2563.4002 : Last Index Value
STEP.M             0.10000000000002274 : Frame Spacing
NULL.                          -999.25 : Absent Value
WELL.                           P05-05 : Well Name
FLD .     FINDER_composites_22-02-2005 : Field Name
CNTY.                                  : County
STAT.                                  : State
CTRY.                                  : Country
LOC .                                  : Location
API .                                  : API Number
DATE.                                  : Date
COMP.                              MOB : Company Name
SRVC.                                  : Service Company
~Curves ----------------------------------------------------
DEPT.M         : 
GR  .GAPI      : 
DT  .US/F      : 
RHOB.G/C3      : 
DRHO.G/C3      : 
NPHI.V/V       : 
~Params ----------------------------------------------------
TDD .M            2575.0 : Total Depth (Driller)
UBID.               7552 : Unique Borehole Id
PDAT.     Mean Sea Level : Permanent Datum
EPD .M               0.0 : Elevation of Permanent Datum (PDAT) above Mean Sea Level
LMF .                    : Logging Measured From (Name of Logging Elevation Reference)
APD .M              36.4 : Elevation of Depth Reference (LMF) Above Permanent Datum
~Other -----------------------------------------------------
composite_curve_qc
~ASCII -----------------------------------------------------
# ...
     2424.7     83.415     65.608     2.6183  -0.009832    0.13755
     2424.8     88.553     65.142     2.6153  -0.009174    0.14406
     2424.9     90.095      65.04     2.6077  -0.010541    0.15004
       2425     88.783     65.005     2.5927  -0.013731    0.15341
     2425.1     88.394      65.19     2.5726  -0.016516    0.15371
     2425.2     89.202     65.692     2.5459  -0.018726     0.1505
     2425.3     90.172     66.296     2.5151  -0.019975    0.14583
     2425.4     89.609     66.607     2.4861  -0.019402    0.14386
     2425.5      86.09     66.727     2.4659  -0.017486    0.14556
     2425.6      79.19     66.987     2.4593  -0.015319    0.14822
     2425.7     70.012     67.581      2.466  -0.013296    0.14677
     2425.8      60.53     68.599     2.4853  -0.012044     0.1375
     2425.9     52.758     69.832     2.5105  -0.011919    0.12056
       2426     46.873     70.857      2.533  -0.012616    0.10087
     2426.1     43.179     71.416     2.5461   -0.01419   0.085118
     2426.2     41.322     71.331     2.5484  -0.016355   0.078421
     2426.3     40.667      70.35     2.5463  -0.018196   0.079535
     2426.4     41.647     68.416     2.5459  -0.018913   0.086909
     2426.5      44.54     66.083     2.5509  -0.018377   0.096414
     2426.6     48.875     64.286     2.5603  -0.017032    0.10296
     2426.7     54.647     63.519     2.5715  -0.015767     0.1055
     2426.8     61.492     63.588     2.5812  -0.015291    0.10633
     2426.9     67.498     64.148     2.5878  -0.015667    0.10609
       2427     71.326     64.764     2.5921  -0.016534    0.10524
     2427.1     73.129     65.078     2.5965  -0.017486    0.10415
     2427.2       73.1     65.016     2.6011  -0.018426    0.10222
     2427.3     71.502     64.741     2.6048  -0.019696   0.099504
     2427.4     69.119     64.479     2.6079  -0.021193   0.097989
     2427.5     66.997     64.258     2.6112   -0.02209    0.10007
     2427.6     65.451     63.961      2.615  -0.022073    0.10633
     2427.7     64.492     63.594     2.6186  -0.021117    0.11526
     2427.8     64.795     63.427     2.6217  -0.018986    0.12502
     2427.9     66.953     63.665     2.6227  -0.016418    0.13293
       2428     71.034     64.163     2.6203  -0.014845    0.13727
     2428.1     77.048     64.652     2.6151   -0.01479    0.13972
     2428.2     84.215     65.184     2.6092  -0.015854    0.14222
     2428.3     90.966     66.001     2.6033  -0.017252    0.14538
     2428.4     95.971     66.971     2.5966  -0.018148    0.15029
     2428.5     99.359     67.774     2.5885  -0.018169     0.1574
     2428.6     102.03     68.348     2.5779    -0.0178    0.16475
     2428.7     103.98     68.841     2.5638  -0.017853    0.16866
     2428.8     105.38     69.373     2.5492   -0.01851    0.16758
     2428.9     106.17     70.011     2.5404  -0.019262     0.1634
       2429     104.73      70.77     2.5405  -0.019561    0.15895
     2429.1     100.45     71.392     2.5476  -0.019183    0.15619
     2429.2     94.778     71.569     2.5568  -0.018338    0.15596
     2429.3     89.098     71.456     2.5621   -0.01749    0.15767
     2429.4     84.437     71.403     2.5611  -0.016731    0.15952
     2429.5     81.954     71.407     2.5557  -0.015594    0.15961
     2429.6     82.224     71.241     2.5482  -0.013751    0.15738
     2429.7     84.304     70.909     2.5413  -0.011437    0.15368
     2429.8     86.478     70.671     2.5387  -0.008961    0.14945
     2429.9     87.731      70.62     2.5433  -0.006739    0.14512
       2430     87.986     70.543      2.554  -0.005737    0.14141
     2430.1     87.321     70.271     2.5673  -0.006741    0.14013
     2430.2     85.733     69.949     2.5804  -0.009463    0.14289
     2430.3     83.743     69.733     2.5905  -0.013295    0.14936
     2430.4      82.07      69.51     2.5941  -0.017447    0.15691
     2430.5     80.494     69.121     2.5924  -0.020776    0.16215
     2430.6     79.057     68.643     2.5911  -0.022584    0.16229
     2430.7     78.706     68.254     2.5949  -0.022947    0.15609
     2430.8     79.184     67.831     2.6045  -0.022416    0.14498
     2430.9     79.234     67.065     2.6182  -0.021625    0.13158
       2431     78.012     65.949     2.6336  -0.021014    0.11707
     2431.1     74.943      64.93     2.6459  -0.020517    0.10179
     2431.2     69.823     64.133     2.6493  -0.019338   0.087344
     2431.3     63.288     62.999     2.6411  -0.016286   0.076061
     2431.4     56.852     61.374     2.6246  -0.010575   0.069588
     2431.5     52.129      59.63     2.6025  -0.003127   0.069195
     2431.6     49.902     58.003     2.5728   0.004322   0.075583
     2431.7     50.369      56.65     2.5381   0.010621   0.087679
     2431.8     53.245     55.913     2.5037   0.014601    0.10314
     2431.9     57.732     56.226      2.471   0.015589    0.12008
       2432     62.854     57.482     2.4435   0.014467    0.13705
     2432.1     68.058     59.383     2.4241   0.012134    0.15351
     2432.2     73.152     62.017     2.4085   0.008533    0.16933
     2432.3     78.105      65.08     2.3935   0.004349      0.183
     2432.4     83.025     67.974      2.381   0.001341    0.19275
     2432.5     87.966     70.534     2.3726   0.000653    0.19856
     2432.6     92.099     72.823     2.3688   0.002025    0.20042
     2432.7     93.581     74.825     2.3698    0.00422    0.19797
     2432.8      90.32      76.15     2.3741   0.005727     0.1941
     2432.9     83.112     76.709     2.3794   0.005759    0.19074
       2433     74.307     76.759     2.3848   0.004651    0.18626
     2433.1     66.016     76.621     2.3917   0.003519    0.17951
     2433.2     59.657     76.459     2.4012   0.003337    0.17132
     2433.3      56.21     76.217     2.4128   0.004441    0.16315
     2433.4      54.84     75.896     2.4249   0.006684    0.15678
     2433.5     53.674     75.475     2.4371   0.010718    0.15294
     2433.6     52.391     74.846     2.4509   0.018164    0.15201
     2433.7     52.621     74.091     2.4697   0.029436     0.1525
     2433.8     55.672     73.314      2.496   0.043331    0.15235
     2433.9     60.624     72.585     2.5247   0.055114    0.15139
       2434      67.18     72.262     2.5479   0.060544    0.15232
     2434.1     75.193     72.481     2.5589   0.058346    0.15757
     2434.2     81.258     72.388     2.5513   0.049919    0.16423
     2434.3     84.963      71.65     2.5313   0.041174    0.17009
     2434.4     88.871     70.796     2.5133   0.036697    0.17516
     2434.5     91.412     70.132     2.4998   0.034755    0.17768
     2434.6     92.681     69.653     2.4887   0.031951     0.1785
     2434.7     93.901     69.242     2.4777   0.026798    0.17926
     2434.8     93.828     69.305     2.4683   0.020139    0.17679
     2434.9     92.141     70.009     2.4622   0.014451    0.16967
       2435     90.075     71.005     2.4617   0.012829     0.1605
     2435.1     87.759     71.935     2.4675    0.01578    0.15099
     2435.2     84.986     72.384      2.476   0.021296    0.14447
     2435.3     81.537     72.205     2.4818    0.02685    0.14433
     2435.4     77.326     71.668     2.4848   0.031152    0.14951
     2435.5     73.289     71.202     2.4872   0.033712    0.15644
     2435.6     70.731     70.867     2.4909   0.035192    0.16309
     2435.7     70.129     70.714     2.4967   0.036256    0.16818
     2435.8     71.206     70.832     2.5021   0.036001    0.17076
     2435.9     73.111     71.237     2.5018   0.032286    0.17141
       2436     75.097     71.806     2.4954   0.025397    0.17011
     2436.1     75.796     72.265     2.4874   0.018058     0.1662
     2436.2     73.917     72.407      2.481   0.012342    0.15865
     2436.3     69.946      71.97     2.4774   0.008915    0.14861
     2436.4      65.71      71.03      2.473   0.007214    0.14005
     2436.5     60.951     70.012     2.4618   0.006923    0.13564
     2436.6     56.231     69.086     2.4424   0.007953    0.13669
