~Version ---------------------------------------------------
VERS.     2.0 : CWLS log ASCII Standard -VERSION 2.0
WRAP.      NO : ONE LINE PER DEPTH STEP
~Well ------------------------------------------------------
STRT.M                           458.4 : First Index Value
STOP.M                       2563.4002 : Last Index Value
STEP.M             0.10000000000002274 : Frame Spacing
NULL.                          -999.25 : Absent Value
WELL.                           P05-05 : Well Name
FLD .     FINDER_composites_22-02-2005 : Field Name
CNTY.                                  : County
STAT.                                  : State
CTRY.                                  : Country
LOC .                                  : Location
API .                                  : API Number
DATE.                                  : Date
COMP.                              MOB : Company Name
SRVC.                                  : Service Company
~Curves ----------------------------------------------------
DEPT.M         : 
GR  .GAPI      : 
DT  .US/F      : 
RHOB.G/C3      : 
DRHO.G/C3      : 
NPHI.V/V       : 
~Params ----------------------------------------------------
TDD .M            2575.0 : Total Depth (Driller)
UBID.               7552 : Unique Borehole Id
PDAT.     Mean Sea Level : Permanent Datum
EPD .M               0.0 : Elevation of Permanent Datum (PDAT) above Mean Sea Level
LMF .                    : Logging Measured From (Name of Logging Elevation Reference)
APD .M              36.4 : Elevation of Depth Reference (LMF) Above Permanent Datum
~Other -----------------------------------------------------
composite_curve_qc
~ASCII -----------------------------------------------------
# ...
       1584     36.573      88.05     2.5358  -0.024254    0.20566
     1584.1     36.294     87.572     2.5367  -0.024536    0.20318
     1584.2     36.569     87.197     2.5371  -0.025058    0.20216
     1584.3     36.967     87.087     2.5371  -0.025542    0.19991
     1584.4     37.455     87.201     2.5371  -0.026185    0.19867
     1584.5      38.11     87.467      2.537  -0.027054    0.20058
     1584.6     38.841       87.9     2.5359  -0.027706    0.20361
     1584.7     39.716     88.405     2.5324  -0.027811    0.20707
     1584.8     40.687     88.817     2.5254  -0.026656    0.21076
     1584.9     41.451      89.08     2.5173   -0.02262    0.21287
       1585     41.973     89.159     2.5138  -0.015107    0.21289
     1585.1      42.25     88.712     2.5173  -0.006852    0.21215
     1585.2     42.033     87.463     2.5251  -0.001813    0.21146
     1585.3     41.276     86.039      2.534  -0.001196    0.21043
     1585.4     40.014     85.165     2.5406  -0.004498    0.20862
     1585.5     38.254     84.711     2.5417  -0.010637    0.20688
     1585.6     36.431     84.413     2.5392   -0.01648    0.20685
     1585.7     34.911     84.571     2.5378  -0.019638    0.20856
     1585.8     33.526     85.404     2.5379  -0.020924    0.21012
     1585.9     32.318     86.246      2.538  -0.021778    0.21022
       1586     31.721     86.489     2.5376  -0.022292    0.20849
     1586.1     31.893     86.473     2.5369  -0.022378      0.205
     1586.2      32.63     86.516     2.5358  -0.022494    0.20178
     1586.3     33.902      86.58     2.5342   -0.02279    0.20225
     1586.4      35.73     86.813     2.5323  -0.023039    0.20797
     1586.5      37.35     87.356     2.5305  -0.023314    0.21666
     1586.6     37.979     88.081     2.5293  -0.023536    0.22417
     1586.7     37.678      88.73     2.5297  -0.023362    0.22781
     1586.8     36.543     89.102     2.5316  -0.022995    0.22763
     1586.9     34.761     89.129     2.5341  -0.022935    0.22515
       1587     33.158     88.864     2.5364  -0.023356    0.22151
     1587.1     32.429     88.473     2.5379  -0.024263    0.21727
     1587.2     32.485     88.081     2.5373   -0.02561    0.21305
     1587.3     32.668     87.703     2.5341  -0.027157    0.20959
     1587.4     32.295      87.43     2.5298  -0.028632    0.20661
     1587.5     31.433     87.401     2.5269  -0.029891    0.20422
     1587.6     31.072     87.576     2.5262  -0.030854    0.20406
     1587.7     31.854      87.75     2.5274  -0.031446    0.20611
     1587.8     33.571     87.857     2.5304  -0.031496    0.20845
     1587.9     35.492     88.034     2.5334  -0.031044    0.21028
       1588     36.654     88.218      2.535  -0.030626    0.21239
     1588.1     36.491     88.184     2.5348  -0.030605    0.21525
     1588.2     35.555     87.986     2.5343  -0.030782     0.2178
     1588.3     34.874     87.793     2.5336  -0.030831    0.21981
     1588.4     35.256      87.71     2.5327  -0.030336    0.22163
     1588.5     36.988     87.827     2.5329  -0.028991    0.22204
     1588.6     39.718     88.114     2.5344  -0.027141    0.22033
     1588.7     42.573     88.384     2.5353  -0.025572    0.21754
     1588.8     44.755     88.515     2.5365  -0.024632     0.2149
     1588.9     45.884     88.539     2.5386  -0.024107    0.21334
       1589      45.66     88.508     2.5403   -0.02345    0.21376
     1589.1      43.96     88.339     2.5427  -0.022024    0.21547
     1589.2     41.576     87.997     2.5463  -0.019843    0.21599
     1589.3     39.767     87.602     2.5493  -0.017726    0.21278
     1589.4     38.238     87.248     2.5509  -0.016444    0.20663
     1589.5     36.532     86.949     2.5513  -0.016144    0.20089
     1589.6     35.266     86.692     2.5496  -0.016453    0.19837
     1589.7     34.062     86.549     2.5463   -0.01714    0.19866
     1589.8      32.56     86.563     2.5427  -0.018029    0.20042
     1589.9     32.009     86.651     2.5395  -0.019081    0.20399
       1590     33.039     86.831     2.5368   -0.02052    0.20718
     1590.1     34.866     87.152     2.5345  -0.022393    0.20786
     1590.2     36.362     87.477     2.5322  -0.024467    0.20762
     1590.3     36.873     87.671     2.5293  -0.026472    0.20727
     1590.4     36.484     87.771     2.5251  -0.028222    0.20652
     1590.5     35.235     87.909     2.5222  -0.029497    0.20746
     1590.6     34.114     88.132     2.5215  -0.029965    0.20969
     1590.7     34.137     88.383     2.5216   -0.02949     0.2104
     1590.8     34.617     88.661     2.5223  -0.028207    0.21023
     1590.9     34.795     88.914     2.5234  -0.026662     0.2111
       1591     35.071      89.06     2.5244  -0.025425    0.21367
     1591.1     35.669     89.068     2.5247  -0.025044    0.21676
     1591.2     36.673     88.986     2.5248  -0.025472    0.21925
     1591.3     38.217     88.849     2.5266  -0.026254    0.22134
     1591.4     40.008     88.693     2.5282  -0.027002    0.22087
     1591.5     41.118     88.597     2.5278  -0.027293    0.21749
     1591.6     40.594     88.626     2.5273  -0.026904    0.21435
     1591.7     38.486     88.684     2.5268  -0.026018    0.21228
     1591.8     36.135     88.655     2.5261  -0.024949    0.21068
     1591.9     34.852     88.612      2.526  -0.024014    0.20998
       1592     34.793     88.552     2.5253  -0.024012    0.20996
     1592.1     34.849      88.46     2.5231  -0.025086    0.20978
     1592.2     34.209     88.422     2.5211  -0.026291    0.20909
     1592.3     32.409     88.401     2.5192  -0.027086    0.20778
     1592.4      29.88     88.275     2.5162  -0.027539    0.20669
     1592.5     27.725     88.079     2.5148  -0.027356    0.20716
     1592.6     27.242     87.866     2.5153  -0.026827    0.20811
     1592.7      28.89     87.697     2.5159  -0.026754    0.20714
     1592.8     31.313     87.599     2.5168   -0.02721    0.20602
     1592.9     33.375     87.592     2.5187   -0.02752    0.20524
       1593     34.774     87.653     2.5203  -0.027037    0.20334
     1593.1     35.021     87.689     2.5192  -0.026043     0.2018
     1593.2     33.769      87.69     2.5156  -0.024547    0.20264
     1593.3     31.491     87.905     2.5133  -0.022387    0.20614
     1593.4     29.436     88.636     2.5116   -0.02062    0.21113
     1593.5     28.764     89.789     2.5101    -0.0199    0.21574
     1593.6     29.223     90.762     2.5101  -0.019764    0.21837
     1593.7      29.83     91.437     2.5105  -0.020106     0.2183
     1593.8     30.507     91.879     2.5097  -0.020816    0.21671
     1593.9     32.219     92.168     2.5083  -0.021534    0.21683
       1594     33.756     92.375     2.5066  -0.022559    0.22013
     1594.1     34.328     92.471     2.5051   -0.02414     0.2257
     1594.2     35.477     92.346     2.5052  -0.025804    0.23008
     1594.3     36.666     92.076      2.508  -0.027169    0.22954
     1594.4      36.94     91.775     2.5132  -0.028049    0.22453
     1594.5     37.239     91.359     2.5195  -0.028387     0.2202
     1594.6     37.455     90.776     2.5256  -0.028324    0.21765
     1594.7     36.973     90.074     2.5306  -0.028015    0.21484
     1594.8     36.372     89.324     2.5339  -0.027219    0.21169
     1594.9     35.978     88.624     2.5357  -0.025642    0.20843
       1595     35.734     88.043     2.5376  -0.023626    0.20531
     1595.1     35.859     87.594     2.5399  -0.022057    0.20328
     1595.2     36.292     87.299      2.542  -0.021559    0.20235
     1595.3     36.867     87.197     2.5434  -0.022071     0.2022
     1595.4     37.792     87.282     2.5445  -0.023139    0.20306
     1595.5     38.949     87.379     2.5448  -0.024176     0.2036
     1595.6     39.637     87.323     2.5434   -0.02475     0.2028
     1595.7     39.359     87.136     2.5408  -0.024949    0.20195
     1595.8     38.483     86.826     2.5374  -0.025413    0.20058
     1595.9      37.68     86.388     2.5336  -0.026468    0.19773
