~Version ---------------------------------------------------
VERS.     2.0 : CWLS log ASCII Standard -VERSION 2.0
WRAP.      NO : ONE LINE PER DEPTH STEP
~Well ------------------------------------------------------
STRT.M                           458.4 : First Index Value
STOP.M                       2563.4002 : Last Index Value
STEP.M             0.10000000000002274 : Frame Spacing
NULL.                          -999.25 : Absent Value
WELL.                           P05-05 : Well Name
FLD .     FINDER_composites_22-02-2005 : Field Name
CNTY.                                  : County
STAT.                                  : State
CTRY.                                  : Country
LOC .                                  : Location
API .                                  : API Number
DATE.                                  : Date
COMP.                              MOB : Company Name
SRVC.                                  : Service Company
~Curves ----------------------------------------------------
DEPT.M         : 
GR  .GAPI      : 
DT  .US/F      : 
RHOB.G/C3      : 
DRHO.G/C3      : 
NPHI.V/V       : 
~Params ----------------------------------------------------
TDD .M            2575.0 : Total Depth (Driller)
UBID.               7552 : Unique Borehole Id
PDAT.     Mean Sea Level : Permanent Datum
EPD .M               0.0 : Elevation of Permanent Datum (PDAT) above Mean Sea Level
LMF .                    : Logging Measured From (Name of Logging Elevation Reference)
APD .M              36.4 : Elevation of Depth Reference (LMF) Above Permanent Datum
~Other -----------------------------------------------------
composite_curve_qc
~ASCII -----------------------------------------------------
# ...
       1440     47.913     95.105     2.3071   0.028879    0.27893
     1440.1     49.825     95.299      2.278   0.022314     0.2859
     1440.2     50.899      95.64     2.2739   0.019136    0.29247
     1440.3     50.822     95.971     2.2951   0.014176    0.29881
     1440.4     49.688     96.222     2.3357   0.005669    0.30096
     1440.5     47.308      96.42     2.3836  -0.004399    0.29736
     1440.6      44.43     96.501     2.4178  -0.013594     0.2876
     1440.7     42.963       96.3     2.4186   -0.01984    0.27055
     1440.8     43.262      95.84     2.3897  -0.020374    0.25131
     1440.9     44.718     95.578     2.3468  -0.014331    0.23803
       1441     47.083     96.026     2.3007  -0.002772    0.23383
     1441.1     48.909     96.751     2.2658   0.014503    0.23793
     1441.2     48.993     96.813     2.2541   0.034796    0.24775
     1441.3     48.313     96.045     2.2612   0.052927     0.2584
     1441.4     47.213     95.684     2.2753   0.065219    0.26495
     1441.5     45.608     96.395     2.2862   0.070686    0.26612
     1441.6     44.981     96.789     2.2854   0.070462    0.26445
     1441.7     45.095     96.413     2.2769   0.068145    0.26243
     1441.8     44.304      96.09     2.2715   0.066937      0.262
     1441.9     42.978     95.668      2.273   0.068506    0.26671
       1442     41.827     94.976      2.285   0.076084    0.27521
     1442.1     40.926     94.534     2.3132   0.091541    0.28302
     1442.2     41.419      94.79     2.3492     0.1096    0.28905
     1442.3     43.549     95.351      2.381    0.12151    0.29144
     1442.4     46.135     95.477     2.4041    0.12151    0.28611
     1442.5     47.821     95.257     2.4164    0.10889    0.27725
     1442.6     48.421     95.396      2.418   0.089092      0.271
     1442.7     48.538     96.238     2.4096    0.06958    0.26744
     1442.8     48.307     96.609     2.4008   0.058717    0.26385
     1442.9     47.969     95.775     2.4041   0.060764    0.25944
       1443     48.293     95.002     2.4273   0.071655    0.25745
     1443.1     48.473      95.06     2.4571   0.077838    0.25618
     1443.2     47.662     95.492     2.4785   0.070933    0.25249
     1443.3     47.059       95.3     2.4917    0.05424    0.24857
     1443.4     46.677     94.639     2.4955   0.034664    0.24526
     1443.5     45.504     94.446     2.4856   0.016247    0.24175
     1443.6     44.002     94.646     2.4609   0.004596    0.24019
     1443.7     42.909     94.734     2.4293   0.003508    0.24172
     1443.8     42.597     94.454     2.4039   0.016257    0.24384
     1443.9     43.004     94.768     2.3964   0.047801    0.24053
       1444     43.701     96.007     2.4049   0.093156    0.23408
     1444.1     44.197     97.139     2.4138    0.13721    0.23508
     1444.2     44.388     97.168     2.4116    0.16281    0.24459
     1444.3     44.314     96.381     2.3892    0.16339    0.25834
     1444.4     44.357     96.344     2.3514    0.14426    0.26918
     1444.5     45.364     96.945     2.3179    0.12174    0.27494
     1444.6     47.228     97.484     2.3034    0.10701     0.2763
     1444.7     48.606     97.477     2.3036    0.10087    0.27441
     1444.8     49.952     96.863     2.3209    0.10207    0.26858
     1444.9     51.498     96.095     2.3459    0.10335     0.2607
       1445      52.34       95.8      2.357    0.09425    0.25543
     1445.1     52.655     95.974     2.3539   0.076493    0.25396
     1445.2     52.523     96.199     2.3435   0.057161     0.2561
     1445.3     51.181     96.238     2.3248   0.039361    0.26182
     1445.4     49.415     96.306     2.3058    0.02737    0.27016
     1445.5     48.751     96.563     2.2982   0.025515    0.27691
     1445.6     49.093     96.566     2.2991   0.030986    0.27799
     1445.7     50.349     96.332     2.3025   0.038986    0.27544
     1445.8     51.706     96.256     2.3059   0.046714    0.27405
     1445.9     51.446     96.353     2.3141   0.054837    0.27232
       1446     49.164     96.462     2.3274    0.06145    0.27049
     1446.1     46.555     96.418     2.3412   0.063857    0.26989
     1446.2      44.93     96.215     2.3553   0.064383    0.26788
     1446.3     44.961     95.759     2.3691   0.065595    0.26383
     1446.4      46.16      95.21     2.3796   0.067106    0.26051
     1446.5     47.599     95.185     2.3847   0.066946    0.25939
     1446.6     48.218     95.561     2.3842   0.064283     0.2608
     1446.7     47.861     95.509     2.3788   0.059585    0.26359
     1446.8     47.705     95.139     2.3648   0.053401      0.266
     1446.9     48.612     94.922     2.3443   0.048397    0.26711
       1447     50.271     95.047     2.3253   0.047049    0.26796
     1447.1      52.29     95.467     2.3097   0.048147    0.27004
     1447.2     53.779     95.895     2.3005   0.050476      0.274
     1447.3     53.587     96.102     2.3014   0.055003    0.27864
     1447.4     51.454     96.264     2.3079   0.061802    0.28189
     1447.5     48.392     96.632     2.3131   0.069633    0.28247
     1447.6     46.152     97.051     2.3125   0.075026    0.28119
     1447.7     45.972     97.118     2.2994   0.073508    0.28054
     1447.8     47.645      96.84     2.2782   0.066327    0.28255
     1447.9      49.93     96.663     2.2642   0.059004    0.28637
       1448     51.723     96.751     2.2649   0.053779    0.28843
     1448.1     52.299     97.004     2.2802   0.050396    0.28626
     1448.2     51.442     97.281     2.3087   0.048047    0.28129
     1448.3     49.905     97.284     2.3427   0.043991     0.2766
     1448.4     48.687     96.769      2.374   0.037024    0.27291
     1448.5     47.836     95.917     2.3989   0.029091    0.26831
     1448.6     46.592     95.281     2.4136   0.021608    0.26176
     1448.7     44.855     95.164     2.4135   0.015202    0.25483
     1448.8     43.269     95.279     2.3986   0.012846    0.25079
     1448.9     41.928     95.265      2.377   0.019798    0.25228
       1449     41.077     95.181     2.3602   0.038503    0.25779
     1449.1     41.471      95.23     2.3541   0.064139    0.26308
     1449.2     42.815     95.272     2.3557   0.086426    0.26646
     1449.3     43.963     95.165     2.3564   0.095892    0.26761
     1449.4     44.319     95.129       2.35   0.090773    0.26596
     1449.5     43.852     95.298     2.3396   0.078059    0.26366
     1449.6     42.703     95.425     2.3327   0.066291    0.26349
     1449.7     41.254     95.359     2.3326    0.05774     0.2652
     1449.8     40.349      95.43     2.3376   0.049401    0.26759
     1449.9     40.771     95.751     2.3456   0.039171    0.27006
       1450     42.577     95.964     2.3548   0.028034    0.27177
     1450.1     45.048     96.146     2.3604   0.017975    0.27189
     1450.2     47.281      96.39     2.3564   0.010828    0.27045
     1450.3     48.476      96.26     2.3423   0.007044    0.26856
     1450.4     48.034      95.94     2.3213   0.004866    0.26754
     1450.5     46.143     95.908     2.3011   0.003609    0.26849
     1450.6     44.097     95.799     2.2933   0.004244    0.27138
     1450.7     42.961     95.129     2.3005   0.006763    0.27398
     1450.8     42.894      94.34       2.32   0.011354    0.27419
     1450.9     43.629     94.413     2.3482     0.0174    0.27289
       1451     44.839     95.078     2.3726    0.02168    0.27208
     1451.1     46.134     95.242     2.3817   0.023544     0.2724
     1451.2     47.013     94.725     2.3797   0.026138    0.27304
     1451.3     47.486     94.332     2.3721   0.031124    0.27323
     1451.4     47.885      94.76     2.3611   0.037808    0.27229
     1451.5     48.257     95.698     2.3538   0.044564    0.26967
     1451.6     48.729     96.191     2.3506   0.048192    0.26721
     1451.7     49.633     95.754     2.3477   0.047402    0.26748
     1451.8      50.92     95.218      2.352   0.044151    0.26885
     1451.9     51.932     95.369      2.364   0.037997    0.26788
