~Version ---------------------------------------------------
VERS.     2.0 : CWLS log ASCII Standard -VERSION 2.0
WRAP.      NO : ONE LINE PER DEPTH STEP
~Well ------------------------------------------------------
STRT.M                           458.4 : First Index Value
STOP.M                       2563.4002 : Last Index Value
STEP.M             0.10000000000002274 : Frame Spacing
NULL.                          -999.25 : Absent Value
WELL.                           P05-05 : Well Name
FLD .     FINDER_composites_22-02-2005 : Field Name
CNTY.                                  : County
STAT.                                  : State
CTRY.                                  : Country
LOC .                                  : Location
API .                                  : API Number
DATE.                                  : Date
COMP.                              MOB : Company Name
SRVC.                                  : Service Company
~Curves ----------------------------------------------------
DEPT.M         : 
GR  .GAPI      : 
DT  .US/F      : 
RHOB.G/C3      : 
DRHO.G/C3      : 
NPHI.V/V       : 
~Params ----------------------------------------------------
TDD .M            2575.0 : Total Depth (Driller)
UBID.               7552 : Unique Borehole Id
PDAT.     Mean Sea Level : Permanent Datum
EPD .M               0.0 : Elevation of Permanent Datum (PDAT) above Mean Sea Level
LMF .                    : Logging Measured From (Name of Logging Elevation Reference)
APD .M              36.4 : Elevation of Depth Reference (LMF) Above Permanent Datum
~Other -----------------------------------------------------
composite_curve_qc
~ASCII -----------------------------------------------------
# ...
       1860     9.1523     62.976     2.4941   -0.02791    0.13282
     1860.1     8.5564     63.004     2.4938  -0.026926    0.13545
     1860.2     8.3059     62.979     2.4959   -0.02522    0.13828
     1860.3     8.3041     63.066     2.4986  -0.023489    0.14063
     1860.4     8.2788     63.254     2.5007   -0.02234    0.14239
     1860.5     8.1455     63.361     2.5012  -0.022245    0.14408
     1860.6     7.9519     63.314     2.4995  -0.023413    0.14559
     1860.7      7.743     63.239     2.4961  -0.025628    0.14566
     1860.8      7.801     63.227     2.4923  -0.028357    0.14382
     1860.9     8.3102     63.243     2.4885   -0.03098    0.14113
       1861     8.8796     63.256     2.4849  -0.032893    0.13884
     1861.1     9.1288     63.281     2.4817  -0.033635    0.13813
     1861.2     9.0685     63.335     2.4789  -0.033149    0.13986
     1861.3     8.7863     63.425     2.4759  -0.031923    0.14342
     1861.4     8.5055     63.568      2.473  -0.030696    0.14659
     1861.5     8.5912      63.77     2.4715  -0.029972    0.14719
     1861.6     9.1273     63.963     2.4717  -0.029762    0.14521
     1861.7     9.7574     64.097     2.4733  -0.029643    0.14286
     1861.8     9.9603      64.19     2.4757  -0.029224    0.14217
     1861.9      9.555     64.258      2.478   -0.02848    0.14279
       1862     9.0376     64.268     2.4789  -0.027606    0.14324
     1862.1     9.0923     64.193     2.4782  -0.026904    0.14294
     1862.2      9.546     64.117     2.4762  -0.026655    0.14237
     1862.3     10.029      64.13     2.4725  -0.026971    0.14246
     1862.4     10.541     64.259     2.4649   -0.02781    0.14415
     1862.5     10.797     64.561     2.4541  -0.029059    0.14802
     1862.6     10.558     65.057     2.4426  -0.030508    0.15419
     1862.7     10.106     65.661     2.4337  -0.031719    0.16182
     1862.8     9.7053     66.308     2.4302  -0.032263    0.16882
     1862.9     9.4515     66.856     2.4337  -0.031884    0.17247
       1863     9.4364      66.99     2.4435  -0.030528    0.17015
     1863.1     9.4586     66.676     2.4569  -0.028346     0.1626
     1863.2     9.2129     66.111     2.4693  -0.026196    0.15299
     1863.3     8.6189     65.439     2.4761  -0.024877    0.14422
     1863.4     7.6895     64.719     2.4793  -0.024106    0.13797
     1863.5     6.6909     64.065     2.4824  -0.023597    0.13472
     1863.6     6.2265     63.633      2.484  -0.023509    0.13318
     1863.7     6.3775     63.415     2.4841  -0.023536    0.13286
     1863.8     6.7783       63.3     2.4849  -0.023039    0.13419
     1863.9     7.3287      63.23     2.4861   -0.02188    0.13624
       1864     7.9131     63.234     2.4872  -0.020552    0.13803
     1864.1     8.3333     63.308      2.489  -0.019454    0.13907
     1864.2     8.5148     63.282     2.4919  -0.018657    0.13764
     1864.3     8.4558     63.141     2.4943   -0.01877    0.13402
     1864.4     8.0703     63.085     2.4948  -0.020067    0.13066
     1864.5     7.1798     63.114     2.4943  -0.021763    0.12823
     1864.6     6.5278     63.145     2.4935  -0.023386    0.12689
     1864.7     7.3379     63.206     2.4917  -0.025335    0.12743
     1864.8     8.7202     63.321     2.4889   -0.02766    0.12895
     1864.9     9.4109     63.467     2.4867  -0.029525     0.1297
       1865     10.229     63.597     2.4876  -0.030479    0.12888
     1865.1     10.846     63.567     2.4908  -0.031094    0.12551
     1865.2     10.683     63.325     2.4942  -0.031519    0.12044
     1865.3     10.592     63.008     2.4985  -0.030848    0.11682
     1865.4     10.677     62.735      2.501  -0.030026    0.11515
     1865.5      10.24     62.479     2.4985  -0.030272    0.11364
     1865.6     9.1235     62.114     2.4925  -0.030768    0.11308
     1865.7     8.0781     61.952     2.4855  -0.031194    0.11297
     1865.8     8.0876     62.263     2.4787  -0.031758    0.11241
     1865.9       9.04      62.49     2.4722  -0.032056    0.11339
       1866     10.359     62.518     2.4658  -0.031826    0.11703
     1866.1     11.482     62.859     2.4579  -0.031445    0.12272
     1866.2     12.127     63.468     2.4461  -0.031538     0.1306
     1866.3     12.068     64.164     2.4326  -0.032168    0.13971
     1866.4     11.353     64.855     2.4236  -0.032726    0.14838
     1866.5     10.298     65.527     2.4199   -0.03291    0.15477
     1866.6     9.2889     66.179     2.4212  -0.032822    0.15807
     1866.7     8.5678     66.647      2.428  -0.032747    0.15852
     1866.8     8.3665     66.776     2.4371  -0.032804    0.15687
     1866.9     8.6262     66.577     2.4452   -0.03301     0.1535
       1867     8.9562     66.194     2.4526  -0.033184    0.14745
     1867.1     9.1551      65.59     2.4586  -0.032797    0.13906
     1867.2     9.1933     64.809     2.4623   -0.03175    0.12976
     1867.3     9.1376     64.135     2.4631  -0.030671    0.12148
     1867.4     8.9938     63.676     2.4616  -0.029753     0.1165
     1867.5     8.8516     63.402     2.4596  -0.028738    0.11578
     1867.6     8.9066     63.334     2.4577    -0.0275    0.11799
     1867.7     9.1343     63.501     2.4557  -0.025948    0.12179
     1867.8     9.4597     63.871      2.453   -0.02415    0.12607
     1867.9     9.9402     64.341     2.4494  -0.022466    0.13045
       1868     10.236     64.814     2.4448  -0.021395    0.13456
     1868.1     9.9802     65.245     2.4401  -0.021247      0.138
     1868.2     9.5156     65.676     2.4367  -0.021857    0.14109
     1868.3     9.1355     66.063     2.4349  -0.023051    0.14426
     1868.4      8.914     66.311     2.4343  -0.024608    0.14735
     1868.5     8.9626     66.432     2.4364  -0.026059    0.14988
     1868.6     9.2658     66.407     2.4413  -0.026989    0.15186
     1868.7     9.6302     66.217     2.4467  -0.027296    0.15348
     1868.8     9.9274     65.937     2.4511  -0.027234    0.15407
     1868.9      10.04     65.621     2.4534  -0.027426    0.15319
       1869     10.023     65.257     2.4547  -0.028114     0.1509
     1869.1     10.287     64.865     2.4573  -0.028747    0.14712
     1869.2     11.349       64.5     2.4621  -0.029251    0.14313
     1869.3     13.608     64.244     2.4672  -0.030296    0.14084
     1869.4     17.045     64.162       2.47  -0.032044    0.14016
     1869.5     20.546      64.15     2.4692  -0.033805    0.14021
     1869.6     22.351     64.062     2.4647  -0.034751    0.14145
     1869.7      21.42     63.989     2.4577  -0.034396    0.14469
     1869.8     18.243     64.049     2.4498  -0.032782    0.14817
     1869.9     14.257     64.238     2.4422  -0.030779    0.15001
       1870     10.916     64.551     2.4348  -0.029613    0.15194
     1870.1     9.1857     64.951     2.4277  -0.029394    0.15497
     1870.2     9.0217     65.417     2.4217  -0.029401    0.15757
     1870.3     9.5218     65.997      2.416  -0.029509    0.15975
     1870.4     9.9756     66.648     2.4105  -0.029972    0.16297
     1870.5     10.313     67.205      2.406   -0.03075    0.16803
     1870.6     10.406     67.629     2.4028  -0.031661    0.17538
     1870.7     10.044     68.016     2.4007  -0.032461    0.18477
     1870.8     9.3968     68.389     2.4003  -0.032577     0.1939
     1870.9     8.8717     68.667     2.4014  -0.031613    0.19957
       1871     8.6883      68.79     2.4023  -0.030041    0.20112
     1871.1     8.8745     68.787      2.402  -0.028453    0.20008
     1871.2     9.4394     68.726     2.4008  -0.026815    0.19753
     1871.3     10.045     68.668     2.3994  -0.025292    0.19555
     1871.4     10.194     68.647     2.3979  -0.024304    0.19653
     1871.5     9.9609     68.669     2.3973  -0.023697    0.19893
     1871.6     9.7067     68.706     2.3993  -0.023084    0.19995
     1871.7     9.5705     68.693      2.404  -0.022541     0.1993
     1871.8     9.6605     68.574     2.4104  -0.022271    0.19751
     1871.9     9.9576     68.364     2.4173  -0.022027    0.19471
