~Version ---------------------------------------------------
VERS.     2.0 : CWLS log ASCII Standard -VERSION 2.0
WRAP.      NO : ONE LINE PER DEPTH STEP
~Well ------------------------------------------------------
STRT.M                           458.4 : First Index Value
STOP.M                       2563.4002 : Last Index Value
STEP.M             0.10000000000002274 : Frame Spacing
NULL.                          -999.25 : Absent Value
WELL.                           P05-05 : Well Name
FLD .     FINDER_composites_22-02-2005 : Field Name
CNTY.                                  : County
STAT.                                  : State
CTRY.                                  : Country
LOC .                                  : Location
API .                                  : API Number
DATE.                                  : Date
COMP.                              MOB : Company Name
SRVC.                                  : Service Company
~Curves ----------------------------------------------------
DEPT.M         : 
GR  .GAPI      : 
DT  .US/F      : 
RHOB.G/C3      : 
DRHO.G/C3      : 
NPHI.V/V       : 
~Params ----------------------------------------------------
TDD .M            2575.0 : Total Depth (Driller)
UBID.               7552 : Unique Borehole Id
PDAT.     Mean Sea Level : Permanent Datum
EPD .M               0.0 : Elevation of Permanent Datum (PDAT) above Mean Sea Level
LMF .                    : Logging Measured From (Name of Logging Elevation Reference)
APD .M              36.4 : Elevation of Depth Reference (LMF) Above Permanent Datum
~Other -----------------------------------------------------
composite_curve_qc
~ASCII -----------------------------------------------------
# ...
     1010.4     28.953     99.581     2.3966  -0.001255    0.23438
     1010.5     29.236     99.745     2.3916  -0.001899    0.21872
     1010.6     29.354     98.943     2.3913  -0.002334    0.20702
     1010.7     28.225     97.492     2.3954  -0.002756    0.21323
     1010.8     26.817     96.312     2.4005  -0.003644    0.23858
     1010.9     26.397     95.563      2.405  -0.004746    0.25866
       1011     27.147     95.062     2.4077  -0.005475    0.25697
     1011.1     28.153     95.021     2.4069  -0.005575    0.24981
     1011.2     28.798     95.367     2.4038  -0.004862    0.23782
     1011.3     28.891     95.901     2.4005  -0.003714    0.22199
     1011.4     27.878     96.996     2.3953  -0.002908    0.22207
     1011.5     26.525     98.622     2.3871   -0.00283     0.1868
     1011.6     26.401     100.27     2.3774  -0.002987   0.075719
     1011.7     28.149     101.57     2.3697  -0.002689   0.008811
     1011.8     30.804     102.53     2.3659  -0.001929   0.068547
     1011.9      32.36     103.33     2.3647  -0.001336    0.18808
       1012     32.339     103.28      2.368  -0.001372    0.27118
     1012.1     30.857     102.22      2.373  -0.002676    0.28482
     1012.2     29.138     100.89     2.3757  -0.004747    0.30144
     1012.3      28.96     99.672     2.3787  -0.005558    0.31456
     1012.4     31.007     98.836     2.3824  -0.004956    0.31691
     1012.5     33.774     98.254      2.384  -0.004432    0.31218
     1012.6     35.893     98.101     2.3853   -0.00355    0.30349
     1012.7     36.133     98.371     2.3863  -0.002606    0.29358
     1012.8      34.48     98.808     2.3831  -0.002745    0.28315
     1012.9     31.201     99.236     2.3781  -0.003051    0.27868
       1013     27.721     99.585     2.3743   -0.00264    0.27259
     1013.1     25.946     99.884     2.3708  -0.002306    0.25081
     1013.2     25.997     99.992     2.3689  -0.002289    0.24496
     1013.3     27.059     99.788     2.3699   -0.00245    0.27241
     1013.4     28.935     99.407     2.3726  -0.003021    0.28374
     1013.5     30.877     99.142     2.3759  -0.004023    0.26055
     1013.6     31.733     99.126     2.3789  -0.005273     0.2253
     1013.7      30.91     99.032     2.3822   -0.00673     0.2088
     1013.8     28.409     98.757     2.3853  -0.008425    0.22166
     1013.9      25.12     98.568     2.3878   -0.01012    0.24944
       1014     22.396     98.766     2.3894  -0.011087     0.2752
     1014.1     21.563     99.302       2.39   -0.01089     0.2898
     1014.2     22.987     99.962     2.3892  -0.009763    0.29332
     1014.3     25.314     100.97     2.3862  -0.008372    0.29099
     1014.4     27.553     102.37     2.3815  -0.007157    0.28447
     1014.5     29.445     103.69     2.3765  -0.006326    0.26745
     1014.6     30.831     104.32     2.3724  -0.005833    0.22682
     1014.7     32.002     104.11     2.3707  -0.004985    0.15949
     1014.8     33.005     103.44     2.3722  -0.003431    0.10611
     1014.9     32.679     102.61     2.3754  -0.002123    0.13028
       1015     30.555     101.91     2.3782  -0.001666    0.21205
     1015.1     27.791     101.51     2.3795  -0.001748    0.26071
     1015.2     25.475     101.48     2.3789  -0.002377    0.27853
     1015.3      24.61     101.84     2.3772  -0.003395    0.28977
     1015.4     25.427     102.42     2.3754  -0.004324    0.27112
     1015.5     27.028      102.8     2.3735  -0.005099    0.20408
     1015.6     28.668     102.68     2.3716  -0.005645    0.14947
     1015.7     30.091     102.21     2.3704  -0.005642    0.17797
     1015.8     30.581     101.75     2.3707  -0.005031    0.23489
     1015.9     29.967     101.59     2.3731  -0.004176    0.24646
       1016     28.996      101.8     2.3765  -0.003533    0.23556
     1016.1     28.013     102.31     2.3785  -0.003373    0.24424
     1016.2     27.155     102.96     2.3775   -0.00367    0.27231
     1016.3     26.698     103.35     2.3755  -0.004128    0.29333
     1016.4     26.632     102.92     2.3758  -0.004604    0.29888
     1016.5     26.834     101.66     2.3803  -0.005443    0.29651
     1016.6     27.455     100.12     2.3885  -0.006697    0.28518
     1016.7     28.647     98.804     2.3985  -0.007586    0.26255
     1016.8     30.172     97.874     2.4059  -0.007594    0.24573
     1016.9      31.59     97.451     2.4064  -0.006846    0.25377
       1017     32.722     97.721     2.4013  -0.005542     0.2733
     1017.1     33.577     98.598      2.395   -0.00414    0.28322
     1017.2      34.17     99.695     2.3899  -0.003168    0.28532
     1017.3     34.641     100.77     2.3878  -0.002427    0.28565
     1017.4     34.803      101.8     2.3886  -0.001382    0.28459
     1017.5     34.141     102.75     2.3897    1.4e-05    0.27896
     1017.6     32.705      103.5     2.3887   0.001116    0.26174
     1017.7     31.123     103.96     2.3846   0.000783    0.24415
     1017.8     29.816     104.17     2.3773  -0.001401    0.24891
     1017.9     28.875     104.19     2.3694  -0.004248    0.26794
       1018     28.513     103.93      2.364  -0.005846     0.2767
     1018.1     29.008     103.12      2.363  -0.005156    0.27284
     1018.2     30.127     101.74     2.3675  -0.002605    0.26687
     1018.3     31.171     100.22     2.3769   0.000202     0.2652
     1018.4     31.676      99.16     2.3872   0.001829    0.26921
     1018.5     31.843     98.662     2.3951   0.002043    0.27643
     1018.6     31.924     98.531     2.3982   0.001352    0.28247
     1018.7     31.884     98.813     2.3944   0.000433    0.28449
     1018.8     32.148     99.592     2.3862      4e-05     0.2851
     1018.9     32.965     100.55     2.3792   0.000217    0.28873
       1019     33.628     100.93     2.3773   0.000341    0.29574
     1019.1     33.709      100.2     2.3817    3.5e-05    0.30242
     1019.2     33.539     98.686      2.391  -0.000814    0.30373
     1019.3     33.482      97.39      2.402  -0.002369    0.29615
     1019.4     33.542     96.963     2.4096  -0.004312    0.28288
     1019.5      33.53     97.477     2.4101  -0.005309    0.27097
     1019.6     33.271     98.863     2.4054  -0.004117    0.26351
     1019.7     32.604     100.83     2.3979  -0.001403    0.25341
     1019.8     31.491     102.77     2.3885   0.001239     0.2402
     1019.9     30.419     103.77     2.3806   0.002555    0.24799
       1020     29.938     103.75     2.3766   0.001688    0.27763
     1020.1     30.195     103.32     2.3751  -0.001695     0.3019
     1020.2      30.69     102.87     2.3743  -0.006506    0.30423
     1020.3     30.827     102.43     2.3732  -0.010809     0.2633
     1020.4     30.396     102.06      2.372  -0.013038    0.17823
     1020.5     29.846     102.02     2.3708  -0.013223    0.15227
     1020.6     29.765      102.4     2.3703  -0.011678    0.22242
     1020.7      30.36     103.04     2.3707  -0.008722    0.27741
     1020.8     31.003     103.74     2.3705  -0.005403    0.26828
     1020.9     31.299     104.41     2.3686  -0.002517    0.23843
       1021     31.639     104.93      2.367  -0.000372    0.23919
     1021.1     31.698     104.85      2.368   0.001053    0.26469
     1021.2     31.174      103.9     2.3722   0.001154    0.27886
     1021.3     30.975     102.63     2.3788  -0.000345    0.27618
     1021.4     31.166     101.69     2.3853  -0.002342    0.27007
     1021.5      31.14     101.42     2.3883  -0.003486    0.25252
     1021.6     31.138     101.63     2.3859   -0.00368    0.17858
     1021.7     31.188     102.25     2.3792  -0.003083    0.12466
     1021.8     30.838     103.23     2.3713  -0.002251    0.19991
     1021.9     29.748        104     2.3646  -0.002427    0.28221
       1022     28.112        104     2.3604  -0.004066    0.27659
     1022.1     26.828     103.17     2.3587  -0.006539    0.24152
     1022.2     26.724     101.66     2.3613  -0.009449    0.23387
     1022.3     27.997     100.19     2.3673   -0.01195    0.26152
