~Version ---------------------------------------------------
VERS.     2.0 : CWLS log ASCII Standard -VERSION 2.0
WRAP.      NO : ONE LINE PER DEPTH STEP
~Well ------------------------------------------------------
STRT.M                           458.4 : First Index Value
STOP.M                       2563.4002 : Last Index Value
STEP.M             0.10000000000002274 : Frame Spacing
NULL.                          -999.25 : Absent Value
WELL.                           P05-05 : Well Name
FLD .     FINDER_composites_22-02-2005 : Field Name
CNTY.                                  : County
STAT.                                  : State
CTRY.                                  : Country
LOC .                                  : Location
API .                                  : API Number
DATE.                                  : Date
COMP.                              MOB : Company Name
SRVC.                                  : Service Company
~Curves ----------------------------------------------------
DEPT.M         : 
GR  .GAPI      : 
DT  .US/F      : 
RHOB.G/C3      : 
DRHO.G/C3      : 
NPHI.V/V       : 
~Params ----------------------------------------------------
TDD .M            2575.0 : Total Depth (Driller)
UBID.               7552 : Unique Borehole Id
PDAT.     Mean Sea Level : Permanent Datum
EPD .M               0.0 : Elevation of Permanent Datum (PDAT) above Mean Sea Level
LMF .                    : Logging Measured From (Name of Logging Elevation Reference)
APD .M              36.4 : Elevation of Depth Reference (LMF) Above Permanent Datum
~Other -----------------------------------------------------
composite_curve_qc
~ASCII -----------------------------------------------------
# ...
       2268     97.828      76.46     2.3613     0.1199    0.24605
     2268.1     99.379     75.622     2.3839     0.1096    0.21674
     2268.2     102.13     75.816     2.4161    0.10289    0.19268
     2268.3     104.64     75.419     2.4507   0.098902    0.18098
     2268.4     107.25       74.6     2.4811   0.097124    0.18547
     2268.5     109.26     74.591     2.5022   0.097717    0.20331
     2268.6     109.34     75.993     2.5161    0.10216    0.22425
     2268.7     108.13      77.58     2.5309    0.11429    0.24377
     2268.8     106.91     78.303     2.5513    0.13625    0.26055
     2268.9     106.71     78.493     2.5752     0.1653    0.27532
       2269     107.89     78.823     2.5994    0.19761    0.28798
     2269.1     109.91     79.297     2.6199    0.22864    0.29544
     2269.2     111.49     79.457     2.6322     0.2522    0.29473
     2269.3     111.83     79.505     2.6306    0.26314     0.2873
     2269.4     110.75      79.71     2.6129    0.25913     0.2765
     2269.5     108.65     79.776     2.5848     0.2426    0.26653
     2269.6     106.09     79.246     2.5535    0.21816    0.26253
     2269.7      103.5     78.229     2.5247    0.19345    0.26471
     2269.8     101.42     77.366     2.5038    0.17775    0.26858
     2269.9     101.01     76.973     2.5003    0.17914    0.27279
       2270     102.82     76.847     2.5124    0.19627    0.27665
     2270.1     106.28      76.86     2.5266     0.2195    0.27877
     2270.2     110.52     77.251     2.5347    0.23847    0.28041
     2270.3     114.08     77.805     2.5335    0.24541    0.28284
     2270.4     115.34      77.91     2.5228      0.237    0.28517
     2270.5     114.33     77.742       2.51    0.21709    0.28696
     2270.6     112.18     77.953     2.5028    0.19151     0.2881
     2270.7     109.94     78.528     2.5002    0.16417     0.2879
     2270.8     108.73      78.91     2.4949    0.13875    0.28673
     2270.9     109.74     79.137     2.4845    0.12113    0.28607
       2271     113.01     79.799     2.4704    0.11462    0.28729
     2271.1      117.2     80.765     2.4499    0.11684    0.29056
     2271.2     121.62     81.287     2.4273    0.12498    0.29315
     2271.3     126.12     81.113     2.4147    0.13665     0.2912
     2271.4     128.56     80.626     2.4159    0.14696    0.28369
     2271.5     127.44     80.187     2.4294    0.15201    0.27213
     2271.6     123.48     79.662     2.4549    0.15067    0.25798
     2271.7     116.46     78.726     2.4836    0.14148    0.24236
     2271.8     107.05     77.614     2.5004    0.12543    0.22455
     2271.9      98.38     76.918     2.4997    0.10914    0.20249
       2272     91.833     76.572     2.4888    0.10008    0.17723
     2272.1     86.483     75.965     2.4773    0.10047    0.15374
     2272.2     81.917     74.679     2.4688    0.10815    0.13662
     2272.3     78.678     72.724     2.4627    0.11976    0.12655
     2272.4     77.517     70.604     2.4544    0.13137     0.1229
     2272.5     79.164     69.067     2.4398    0.14125    0.12755
     2272.6     83.874     68.383     2.4262    0.15015    0.14255
     2272.7     90.697      68.44     2.4176    0.15537    0.16652
     2272.8     97.411     69.226     2.4049    0.15338    0.19425
     2272.9      101.5     70.602     2.3905    0.14695    0.21734
       2273     102.13     72.204     2.3829    0.14119    0.22946
     2273.1     100.42     73.524     2.3794    0.13921    0.23019
     2273.2     97.337     73.871      2.383    0.14354    0.22609
     2273.3     93.639     71.232     2.3993    0.15449    0.22414
     2273.4     91.433     63.792     2.4183    0.16857      0.226
     2273.5      92.12     56.079     2.4266    0.18239    0.22953
     2273.6     95.692     55.105     2.4202    0.19443    0.23198
     2273.7     101.14     61.254     2.4023    0.20215    0.23163
     2273.8     106.89      68.87     2.3782    0.20352    0.23011
     2273.9     110.97     73.157     2.3536    0.19992    0.23022
       2274     111.35     74.219     2.3374    0.19512    0.23183
     2274.1     108.72     74.204     2.3318    0.18966    0.23371
     2274.2     106.06     74.167     2.3324    0.18151    0.23552
     2274.3     105.27     74.177     2.3377    0.17011     0.2371
     2274.4     106.35     74.023      2.352    0.15568    0.23773
     2274.5     108.07     73.635     2.3801    0.13714    0.23616
     2274.6      108.8     73.363     2.4161    0.11277    0.23195
     2274.7     108.09     73.547      2.453   0.083311    0.22589
     2274.8     107.17     74.101     2.4868   0.054523    0.21956
     2274.9     107.32     74.474     2.5103   0.031061    0.21346
       2275     109.11     74.295     2.5194   0.016959    0.20771
     2275.1      112.9      73.82     2.5192   0.012088    0.20238
     2275.2     118.99     73.422     2.5106   0.011947    0.19722
     2275.3     126.72     73.248      2.497   0.017532    0.19245
     2275.4     134.32     73.185     2.4928   0.035974    0.18909
     2275.5     139.51     73.294     2.4974    0.07007    0.18835
     2275.6     140.84     73.758     2.4934    0.11174    0.19058
     2275.7     138.09     74.806     2.4597    0.14957    0.19573
     2275.8     132.26     76.812     2.3992    0.17064    0.20357
     2275.9     125.14     79.409     2.3341    0.17072    0.21399
       2276     118.99     80.451     2.2745     0.1571    0.22715
     2276.1     114.19     79.684     2.2404    0.14462    0.24209
     2276.2     108.89     79.467     2.2405    0.14074    0.25817
     2276.3     105.83     79.585     2.2564    0.13772    0.27445
     2276.4     106.06     78.833     2.2643    0.12483    0.28904
     2276.5     106.89     76.974      2.266    0.10191    0.29905
     2276.6     108.92     75.929     2.2625   0.072656    0.29994
     2276.7      111.4     76.662     2.2498   0.045421    0.29129
     2276.8     112.18     77.338     2.2224   0.026806    0.27816
     2276.9     112.01     77.615     2.1977   0.026478    0.26437
       2277     113.18      77.85     2.1954   0.046405    0.25372
     2277.1     116.04     78.144     2.2117   0.082016    0.24749
     2277.2     118.79     77.816     2.2498    0.12659    0.24807
     2277.3     119.21      76.77     2.3012    0.16684    0.25398
     2277.4     117.53      76.21     2.3451    0.18835    0.26121
     2277.5     113.12     75.736     2.3675     0.1764    0.26945
     2277.6     106.78       74.6     2.3762    0.13267    0.27788
     2277.7     102.01     74.175     2.3904   0.075336    0.27921
     2277.8      99.62      74.96     2.4218   0.024659    0.27163
     2277.9     97.526     75.933     2.4636  -0.009783    0.25955
       2278     95.493     76.034     2.4984  -0.025294    0.24444
     2278.1     93.769     75.091     2.5207  -0.025133    0.22897
     2278.2     92.962     74.174     2.5391  -0.017363    0.21752
     2278.3     93.783     74.112     2.5521  -0.008931    0.21384
     2278.4     95.569     75.095     2.5622  -0.003602    0.21826
     2278.5     96.889     76.349     2.5727  -0.002256    0.22703
     2278.6     98.641     77.214     2.5773  -0.005815    0.23779
     2278.7     101.06     77.699     2.5755  -0.012836    0.24787
     2278.8     102.72     78.349     2.5764  -0.019697     0.2546
     2278.9     103.25     78.973     2.5799  -0.025115    0.25827
       2279     102.77     79.065      2.584  -0.029524    0.26064
     2279.1     101.68     78.407     2.5891   -0.03295    0.26193
     2279.2     101.14     77.359     2.5949  -0.034931    0.25996
     2279.3     101.94     76.573     2.6009  -0.035168    0.25358
     2279.4     103.25      76.33     2.6068  -0.033804    0.24554
     2279.5     103.54     76.235     2.6116  -0.031494    0.23985
     2279.6     102.04     75.843     2.6135  -0.028882    0.23842
     2279.7     100.02     75.184     2.6102  -0.026362    0.23861
     2279.8     99.164     74.433     2.5978  -0.023615    0.23747
     2279.9     100.46     73.975     2.5768   -0.01839    0.23441
