~Version ---------------------------------------------------
VERS.     2.0 : CWLS log ASCII Standard -VERSION 2.0
WRAP.      NO : ONE LINE PER DEPTH STEP
~Well ------------------------------------------------------
STRT.M                           458.4 : First Index Value
STOP.M                       2563.4002 : Last Index Value
STEP.M             0.10000000000002274 : Frame Spacing
NULL.                          -999.25 : Absent Value
WELL.                           P05-05 : Well Name
FLD .     FINDER_composites_22-02-2005 : Field Name
CNTY.                                  : County
STAT.                                  : State
CTRY.                                  : Country
LOC .                                  : Location
API .                                  : API Number
DATE.                                  : Date
COMP.                              MOB : Company Name
SRVC.                                  : Service Company
~Curves ----------------------------------------------------
DEPT.M         : 
GR  .GAPI      : 
DT  .US/F      : 
RHOB.G/C3      : 
DRHO.G/C3      : 
NPHI.V/V       : 
~Params ----------------------------------------------------
TDD .M            2575.0 : Total Depth (Driller)
UBID.               7552 : Unique Borehole Id
PDAT.     Mean Sea Level : Permanent Datum
EPD .M               0.0 : Elevation of Permanent Datum (PDAT) above Mean Sea Level
LMF .                    : Logging Measured From (Name of Logging Elevation Reference)
APD .M              36.4 : Elevation of Depth Reference (LMF) Above Permanent Datum
~Other -----------------------------------------------------
composite_curve_qc
~ASCII -----------------------------------------------------
# ...
      866.4     59.528     187.25     1.8954    0.02589    0.55322
      866.5     58.458      186.7     1.8919   0.030067    0.54546
      866.6     57.438     186.32     1.8976   0.036943     0.5317
      866.7      57.02     186.22     1.9075   0.043372    0.51922
      866.8     57.253     186.22     1.9187   0.048493    0.51299
      866.9     58.037     186.16     1.9246   0.051725    0.51447
        867      58.99     186.01     1.9188   0.052457    0.51699
      867.1     59.726     185.92     1.9043   0.051626    0.51062
      867.2      60.37     185.94     1.8888   0.050846    0.49918
      867.3     61.222     185.95      1.879   0.050099    0.49192
      867.4     62.217     185.86     1.8739   0.047538    0.48862
      867.5     63.203     185.75     1.8735   0.043305      0.489
      867.6      63.91     185.67     1.8761   0.038985    0.49165
      867.7     63.771     185.52     1.8781   0.035211    0.49254
      867.8     62.195     185.44     1.8791   0.033085     0.4922
      867.9     59.249     185.62     1.8824   0.034332    0.49339
        868     55.716     185.97     1.8897   0.039652    0.49421
      868.1     52.382     186.35        1.9   0.047518    0.49162
      868.2     50.055     186.69     1.9113   0.055177    0.48746
      868.3     49.509     186.93     1.9231   0.060748    0.48844
      868.4     50.223     187.09     1.9361   0.064105    0.49798
      868.5     51.197     187.16     1.9501   0.065193    0.50872
      868.6     52.477     187.08     1.9633     0.0633    0.50887
      868.7     53.961     186.91     1.9727   0.059291     0.4977
      868.8     55.318     186.79     1.9743   0.055067    0.48577
      868.9     56.875     186.66     1.9629   0.051231    0.48347
        869     58.691     186.51      1.936   0.047812    0.49843
      869.1     60.397     186.32     1.8991   0.046072    0.52804
      869.2     61.954     185.96     1.8628   0.046263    0.55499
      869.3     63.159      185.4     1.8332   0.045062    0.56412
      869.4     63.434     184.84     1.8143   0.039375    0.55599
      869.5     62.643     184.35      1.811   0.030152    0.54174
      869.6     61.254     184.01     1.8219   0.020248    0.53036
      869.7     59.583     183.89     1.8392   0.012219    0.52462
      869.8     57.523     183.91     1.8565   0.007756    0.52428
      869.9     55.359     183.93     1.8704   0.007585    0.52641
        870     53.556     183.85     1.8824   0.012557    0.52746
      870.1     52.248     183.66     1.8986   0.023662    0.52568
      870.2     52.123     183.33     1.9212    0.03916    0.51826
      870.3     53.738     182.87     1.9448   0.054566    0.50319
      870.4     56.075     182.26     1.9624   0.066199    0.48432
      870.5     57.722     181.65     1.9727   0.073025    0.46766
      870.6     58.065      181.2     1.9803   0.075652     0.4569
      870.7     57.111     180.85     1.9896    0.07533    0.45393
      870.8     55.844      180.5     2.0043   0.073705    0.45778
      870.9     55.432     180.27      2.023   0.070501     0.4673
        871      55.78     180.34     2.0361   0.063709    0.48357
      871.1      56.61     180.63     2.0365   0.053345    0.50526
      871.2     58.137      180.9     2.0253    0.04157    0.52765
      871.3     59.862     181.09     2.0068   0.031365    0.54598
      871.4     61.299     181.21     1.9876   0.026482    0.55436
      871.5     62.302     181.19     1.9757    0.02845    0.54709
      871.6     62.049     181.04     1.9717   0.033814     0.5288
      871.7     60.094     180.83     1.9696   0.038017    0.50714
      871.8     57.387     180.58     1.9637   0.038355    0.48697
      871.9         55     180.25     1.9524   0.034262    0.47455
        872       53.3        180     1.9361   0.027248    0.47334
      872.1     52.483     180.23     1.9177   0.020161    0.48079
      872.2     52.913     180.99     1.9016   0.014771    0.49401
      872.3     54.626     182.05     1.8893   0.011436     0.5103
      872.4     56.927     183.18     1.8771    0.01125    0.52279
      872.5     59.372     184.25     1.8633   0.015988    0.52636
      872.6     61.141      185.2      1.844   0.023866    0.52057
      872.7     60.579        186     1.8093   0.030536    0.50911
      872.8     57.498     186.66     1.7609   0.034287    0.49556
      872.9     53.348     187.04     1.7133   0.033724    0.48481
        873      49.91      186.9     1.6801   0.028141    0.48421
      873.1     48.282      186.4     1.6698   0.020657    0.49402
      873.2     48.973     185.93     1.6861   0.015153     0.5096
      873.3     51.967     185.49      1.724   0.011412    0.53005
      873.4     55.621     185.02     1.7644   0.008431    0.54624
      873.5     58.009     184.53     1.7911   0.006547    0.54638
      873.6     58.738     184.07     1.8018   0.006018    0.53214
      873.7      58.31     183.72     1.8021   0.006163    0.51557
      873.8      57.16     183.71     1.7969   0.006084    0.50605
      873.9      55.74     184.22     1.7898   0.005767    0.50574
        874     54.953     184.98     1.7845   0.006109    0.51135
      874.1     55.265     185.45      1.783    0.00795    0.51849
      874.2     54.912      185.5     1.7835   0.011532     0.5214
      874.3     53.383     185.32     1.7851   0.016588    0.52343
      874.4     53.552      184.9     1.7913   0.022746    0.54213
      874.5     54.474      184.3     1.7971   0.027726    0.57751
      874.6     54.029     183.68     1.7945   0.031543    0.61169
      874.7     54.724     183.11     1.7796   0.036444    0.63043
      874.8     55.376     182.57     1.7492   0.038794    0.62454
      874.9     53.517     182.13     1.7111   0.034772    0.59914
        875     51.995     182.22     1.6832   0.027555    0.55889
      875.1     51.149     182.77     1.6786   0.020678    0.51775
      875.2     49.453     183.26     1.6918   0.017612    0.48949
      875.3     48.814     183.76     1.7147   0.023079     0.4838
      875.4     48.744     184.26     1.7267   0.033221     0.4942
      875.5     46.906     184.68     1.7136   0.040883     0.5035
      875.6     45.171     184.97     1.6861   0.045909    0.51199
      875.7     44.686     185.14     1.6617   0.047935    0.51507
      875.8     44.068     185.29     1.6494   0.047187    0.50823
      875.9     43.445     185.36     1.6594   0.049212    0.50464
        876     43.348     185.12     1.6875    0.05532    0.50899
      876.1     44.049     184.48     1.7109   0.059101    0.51014
      876.2     44.995     183.94     1.7164   0.057926    0.52011
      876.3     45.679     183.97     1.7033   0.051905    0.54306
      876.4     46.306      184.5     1.6864   0.042369    0.55942
      876.5     46.784      185.6     1.6787   0.034754    0.57033
      876.6     46.899     186.93     1.6871   0.033224    0.58175
      876.7     46.742     187.63     1.7061   0.037325    0.58669
      876.8     46.733     187.68     1.7252   0.046145    0.58696
      876.9     46.711     187.53      1.732   0.055909    0.58778
        877     45.655     187.31      1.723   0.060154    0.58441
      877.1     43.994     187.14     1.7108   0.058206    0.57156
      877.2     43.034     187.14     1.7114   0.051896    0.54965
      877.3     42.904     187.19     1.7224    0.04041    0.52667
      877.4     43.588     187.15     1.7402   0.026513      0.511
      877.5     44.707     187.06     1.7579   0.016471    0.50435
      877.6     45.154      187.2     1.7625   0.013126     0.4991
      877.7     44.216     187.68     1.7498   0.016737    0.49366
      877.8     42.262     188.33     1.7262   0.026223    0.49158
      877.9     40.353     188.94     1.6957   0.038421    0.49206
        878     39.545     189.26     1.6632    0.04796    0.49892
      878.1     39.882     189.26     1.6341   0.050401    0.51833
      878.2     40.414     189.33     1.6102   0.045519    0.54577
      878.3     40.512     189.45     1.5926   0.035805    0.56742
