~Version ---------------------------------------------------
VERS.     2.0 : CWLS log ASCII Standard -VERSION 2.0
WRAP.      NO : ONE LINE PER DEPTH STEP
~Well ------------------------------------------------------
STRT.M                           458.4 : First Index Value
STOP.M                       2563.4002 : Last Index Value
STEP.M             0.10000000000002274 : Frame Spacing
NULL.                          -999.25 : Absent Value
WELL.                           P05-05 : Well Name
FLD .     FINDER_composites_22-02-2005 : Field Name
CNTY.                                  : County
STAT.                                  : State
CTRY.                                  : Country
LOC .                                  : Location
API .                                  : API Number
DATE.                                  : Date
COMP.                              MOB : Company Name
SRVC.                                  : Service Company
~Curves ----------------------------------------------------
DEPT.M         : 
GR  .GAPI      : 
DT  .US/F      : 
RHOB.G/C3      : 
DRHO.G/C3      : 
NPHI.V/V       : 
~Params ----------------------------------------------------
TDD .M            2575.0 : Total Depth (Driller)
UBID.               7552 : Unique Borehole Id
PDAT.     Mean Sea Level : Permanent Datum
EPD .M               0.0 : Elevation of Permanent Datum (PDAT) above Mean Sea Level
LMF .                    : Logging Measured From (Name of Logging Elevation Reference)
APD .M              36.4 : Elevation of Depth Reference (LMF) Above Permanent Datum
~Other -----------------------------------------------------
composite_curve_qc
~ASCII -----------------------------------------------------
# ...
       1992     9.7736     61.567     2.5163  -0.030036    0.10755
     1992.1     9.6038     61.363     2.5085  -0.032178    0.10769
     1992.2     9.4976     61.168     2.5054  -0.033093    0.10858
     1992.3     9.4071     60.939     2.5083  -0.032697     0.1105
     1992.4     8.8199     60.738     2.5164  -0.031434    0.11091
     1992.5      8.415     60.701     2.5261  -0.029819    0.10914
     1992.6     9.1953      60.87     2.5331  -0.027766    0.10747
     1992.7     10.196     61.062     2.5341  -0.025007    0.10783
     1992.8     11.133     61.221     2.5263  -0.022012    0.11169
     1992.9     12.337     61.503     2.5094   -0.01979    0.11876
       1993     12.727     62.025     2.4863  -0.018519    0.12827
     1993.1     11.743     62.823     2.4601   -0.01836    0.14007
     1993.2     10.216     63.748      2.435  -0.019586    0.15403
     1993.3     8.7972     64.727      2.413  -0.021516    0.17002
     1993.4     7.8687      65.74     2.3941  -0.023582    0.18738
     1993.5     7.4382      66.77     2.3777  -0.025679    0.20318
     1993.6     7.7816     67.836     2.3637  -0.027347    0.21451
     1993.7     8.6203     68.872     2.3528  -0.028034    0.22029
     1993.8     8.9982     69.788     2.3448  -0.027791    0.22419
     1993.9     9.1065     70.524     2.3396  -0.026958    0.22705
       1994      9.449     71.087     2.3376  -0.026269    0.22913
     1994.1     9.9484     71.579      2.338  -0.026458    0.23159
     1994.2     10.381     71.852     2.3405  -0.027357    0.23373
     1994.3     10.491     71.809     2.3436  -0.028179    0.23375
     1994.4     10.223     71.701     2.3449  -0.028189    0.23163
     1994.5     9.8162     71.676     2.3438   -0.02698    0.22957
     1994.6     9.6569     71.786     2.3405   -0.02503    0.22956
     1994.7      9.805     72.068     2.3356  -0.023463    0.23074
     1994.8     9.9502      72.43     2.3313  -0.022683    0.23282
     1994.9     9.7174     72.682     2.3297  -0.022496    0.23469
       1995     9.0484     72.724     2.3304  -0.022946    0.23347
     1995.1     7.9487     72.541     2.3321  -0.023724    0.22948
     1995.2     6.7653     72.232     2.3335  -0.024131    0.22642
     1995.3     6.1452     71.953     2.3339  -0.024018    0.22621
     1995.4     6.1579     71.853     2.3321  -0.023892    0.22859
     1995.5     6.3714     71.967     2.3279  -0.024204    0.23189
     1995.6     6.6955     72.227      2.323  -0.024751    0.23445
     1995.7     7.0405     72.584     2.3193  -0.025117    0.23522
     1995.8     7.2248     72.972     2.3174  -0.025065    0.23492
     1995.9     7.3328     73.227     2.3173  -0.024478    0.23537
       1996     7.5966     73.257     2.3195  -0.023505     0.2367
     1996.1     8.1325     73.091     2.3235  -0.022724    0.23789
     1996.2      8.818     72.764     2.3278  -0.022569    0.23874
     1996.3     9.3016     72.412     2.3321  -0.022584    0.23764
     1996.4     9.3013     72.202     2.3362  -0.022252    0.23407
     1996.5     8.9042     72.136     2.3389  -0.021997    0.23146
     1996.6     8.4259     72.141     2.3397  -0.022528    0.23095
     1996.7     8.1715      72.25     2.3391  -0.024035    0.23138
     1996.8     8.2802     72.517     2.3378  -0.026093    0.23355
     1996.9     8.5791       72.8      2.337  -0.027871    0.23543
       1997     8.8369     72.877     2.3376  -0.028679     0.2334
     1997.1     9.1585     72.768     2.3384  -0.028509    0.22902
     1997.2     9.8204     72.657     2.3384  -0.027782     0.2247
     1997.3     10.712     72.593      2.339  -0.026836    0.22078
     1997.4     11.281     72.461     2.3415  -0.025879    0.21885
     1997.5     11.186     72.229     2.3462  -0.025122    0.21979
     1997.6     10.499     71.992     2.3533  -0.024529    0.22142
     1997.7     9.4149     71.754     2.3635  -0.023804    0.22113
     1997.8     8.5121     71.376     2.3754  -0.022863    0.21761
     1997.9     8.4118     70.745     2.3871   -0.02183    0.21098
       1998     8.9425     69.919     2.3988  -0.020821    0.20263
     1998.1     9.4892     69.025     2.4112  -0.020144    0.19407
     1998.2     9.7277     68.104     2.4241  -0.020218    0.18586
     1998.3     9.6722     67.151     2.4379  -0.021126    0.17818
     1998.4      9.509     66.148     2.4539  -0.022562    0.17073
     1998.5     9.4688     65.147     2.4728  -0.024225    0.16236
     1998.6     9.6646     64.305     2.4935  -0.025824    0.15152
     1998.7     9.9437     63.547     2.5146  -0.026945    0.13742
     1998.8     10.103     62.568      2.535  -0.027478    0.12057
     1998.9     10.281     61.396     2.5519  -0.027783    0.10312
       1999      10.64     60.241     2.5642  -0.028022     0.0877
     1999.1     10.957     59.229     2.5723  -0.028181   0.076936
     1999.2     10.933     58.454     2.5769  -0.028403    0.07079
     1999.3     10.463      57.97     2.5788  -0.028362    0.06704
     1999.4     9.6465     57.716     2.5804   -0.02753   0.063588
     1999.5     8.7177     57.553     2.5826  -0.026141   0.060557
     1999.6     8.0537     57.452      2.583  -0.024862   0.059103
     1999.7     8.0684     57.533     2.5762  -0.024195   0.059844
     1999.8     8.4728     57.799     2.5606  -0.024214   0.063289
     1999.9     8.7393     58.244     2.5361  -0.024495   0.070607
       2000     8.8023      59.02      2.504  -0.024573   0.082864
     2000.1     8.8095     60.249     2.4678  -0.024537    0.10072
     2000.2     8.8995     61.814     2.4341  -0.024657    0.12295
     2000.3     9.2324     63.401      2.408  -0.025069    0.14608
     2000.4     9.8089     64.855     2.3901  -0.025978    0.16711
     2000.5     10.476     66.085      2.381  -0.026701    0.18301
     2000.6     11.087     66.954      2.382  -0.025992    0.19246
     2000.7     11.404     67.367     2.3912  -0.023716    0.19673
     2000.8     11.151     67.304     2.4049  -0.020875    0.19767
     2000.9      10.41     66.946     2.4229  -0.018203    0.19669
       2001     9.5469     66.495     2.4426  -0.016604    0.19432
     2001.1     8.8738     65.954     2.4595  -0.016721     0.1903
     2001.2     8.6281     65.265     2.4724  -0.018243    0.18493
     2001.3     8.7922     64.577     2.4818   -0.02013    0.17859
     2001.4     9.1083     64.137     2.4887  -0.021539    0.17055
     2001.5     9.4428     63.862     2.4951  -0.022357    0.16034
     2001.6     9.7666      63.54     2.5027  -0.022758    0.14902
     2001.7     10.071     63.139     2.5119   -0.02288    0.13698
     2001.8     10.272     62.813      2.521  -0.022789    0.12623
     2001.9      10.38     62.652     2.5283  -0.022664    0.11784
       2002     10.509     62.539      2.533  -0.022515     0.1116
     2002.1      10.37     62.312     2.5356  -0.021815    0.10886
     2002.2     9.7273     61.989      2.537  -0.020822    0.10963
     2002.3     9.0761     61.892     2.5337  -0.021021    0.11108
     2002.4     8.5118     61.946      2.526  -0.022382     0.1123
     2002.5     7.8685     61.858     2.5183  -0.023786    0.11459
     2002.6     7.9633     62.097     2.5105  -0.025308    0.11615
     2002.7     8.9081     62.671     2.5053  -0.026107    0.11708
     2002.8     9.8805     63.034     2.5046  -0.025771    0.11937
     2002.9     10.619     63.066     2.5052  -0.025881     0.1216
       2003     10.797     62.999     2.5025  -0.027389    0.12263
     2003.1     10.339     63.218     2.4953  -0.029509    0.12341
     2003.2      9.669     63.645     2.4834  -0.031323    0.12514
     2003.3     9.1857     63.953     2.4693  -0.031476    0.12851
     2003.4     8.7245     64.003     2.4559  -0.029309     0.1332
     2003.5     8.5637     64.087     2.4439   -0.02593    0.13975
     2003.6     8.8919     64.459     2.4329  -0.023253    0.14766
     2003.7     9.5015     64.838      2.424  -0.022496    0.15456
     2003.8     10.256     65.034     2.4188  -0.023934    0.16062
     2003.9      10.93     64.983     2.4195  -0.026698    0.16576
