~Version ---------------------------------------------------
VERS.     2.0 : CWLS log ASCII Standard -VERSION 2.0
WRAP.      NO : ONE LINE PER DEPTH STEP
~Well ------------------------------------------------------
STRT.M                           458.4 : First Index Value
STOP.M                       2563.4002 : Last Index Value
STEP.M             0.10000000000002274 : Frame Spacing
NULL.                          -999.25 : Absent Value
WELL.                           P05-05 : Well Name
FLD .     FINDER_composites_22-02-2005 : Field Name
CNTY.                                  : County
STAT.                                  : State
CTRY.                                  : Country
LOC .                                  : Location
API .                                  : API Number
DATE.                                  : Date
COMP.                              MOB : Company Name
SRVC.                                  : Service Company
~Curves ----------------------------------------------------
DEPT.M         : 
GR  .GAPI      : 
DT  .US/F      : 
RHOB.G/C3      : 
DRHO.G/C3      : 
NPHI.V/V       : 
~Params ----------------------------------------------------
TDD .M            2575.0 : Total Depth (Driller)
UBID.               7552 : Unique Borehole Id
PDAT.     Mean Sea Level : Permanent Datum
EPD .M               0.0 : Elevation of Permanent Datum (PDAT) above Mean Sea Level
LMF .                    : Logging Measured From (Name of Logging Elevation Reference)
APD .M              36.4 : Elevation of Depth Reference (LMF) Above Permanent Datum
~Other -----------------------------------------------------
composite_curve_qc
~ASCII -----------------------------------------------------
# ...
       1716     22.471     70.973     2.5486    3.4e-05    0.14625
     1716.1     24.002     70.787     2.5605   0.004771    0.14567
     1716.2     24.671     70.902     2.5731   0.006184    0.14113
     1716.3     24.145     70.782     2.5781   0.003637    0.13503
     1716.4     22.775     70.129     2.5738  -0.001165    0.12879
     1716.5     21.278     69.672     2.5624  -0.005696    0.12397
     1716.6     20.303     69.986      2.547  -0.006885    0.12152
     1716.7     20.397     70.363     2.5297  -0.002486     0.1219
     1716.8     21.206     69.986     2.5125   0.006138    0.12415
     1716.9     22.128     69.146     2.5033   0.023606    0.12788
       1717     23.266     69.471     2.5253   0.053468    0.13465
     1717.1      24.47     70.404     2.5617   0.077355    0.14254
     1717.2      25.32     70.214     2.5812   0.079847    0.14852
     1717.3     25.473     69.896     2.5968   0.068539      0.153
     1717.4     24.964     70.535     2.6053   0.049455    0.15595
     1717.5     24.021      71.77     2.5811   0.022459    0.15683
     1717.6     22.916     72.514     2.5468   0.002957    0.16023
     1717.7     22.076      72.44     2.5246  -0.003369    0.16685
     1717.8     21.799     72.411     2.5058  -0.006874    0.17131
     1717.9     21.963     72.185     2.4974  -0.011129    0.17475
       1718     21.915     71.707     2.5025  -0.015615    0.17671
     1718.1      21.16     71.519      2.514  -0.019859    0.17255
     1718.2     20.285     71.341     2.5261  -0.022479    0.16718
     1718.3     19.731     71.066     2.5345  -0.023207    0.16555
     1718.4     18.869     71.329     2.5392  -0.022895    0.16381
     1718.5     18.125     71.685     2.5415  -0.021931    0.16344
     1718.6     17.915     71.568      2.544  -0.020571    0.16532
     1718.7     17.674     71.613     2.5473  -0.019473    0.16466
     1718.8     17.961     71.953     2.5489  -0.018983    0.16295
     1718.9     19.394     72.364     2.5463  -0.019033    0.16435
       1719     20.842     72.903     2.5427  -0.019315    0.16601
     1719.1     21.724     73.282     2.5393  -0.019516    0.16595
     1719.2     21.769     73.115     2.5363  -0.019037    0.16451
     1719.3     20.356     72.758     2.5356  -0.017388    0.16329
     1719.4     18.095      72.54     2.5354  -0.015575    0.16359
     1719.5     16.766     72.461     2.5315  -0.015229    0.16551
     1719.6     16.502     72.307      2.524  -0.015913    0.16825
     1719.7     17.043     72.091     2.5154  -0.016415    0.17026
     1719.8     17.774     72.058     2.5099  -0.015368    0.17037
     1719.9     18.185     72.034     2.5112  -0.011814    0.16886
       1720     17.999     71.706      2.519  -0.007194    0.16584
     1720.1     17.531      71.08     2.5268  -0.005114    0.16115
     1720.2     17.023     70.578     2.5304  -0.006576    0.15525
     1720.3      16.38     70.254      2.529  -0.010124    0.14896
     1720.4     15.394     69.663     2.5243  -0.013095    0.14358
     1720.5     14.628     69.207     2.5153  -0.013628    0.14164
     1720.6     14.611     69.562     2.5068  -0.010474    0.14415
     1720.7      15.28     70.467     2.5059  -0.004908    0.14883
     1720.8     16.822     70.773     2.5063  -0.001161    0.15392
     1720.9     18.957     70.266     2.5045  -0.000519     0.1574
       1721       20.8     70.264     2.5069  -0.000265    0.15823
     1721.1      21.88     70.872     2.5073  -0.001065    0.15858
     1721.2      22.08      71.29     2.5016   -0.00355    0.16037
     1721.3     21.281     71.302        2.5  -0.005753    0.16239
     1721.4     19.711     71.192     2.5028  -0.008546     0.1647
     1721.5      18.07     71.277      2.506  -0.013342    0.16744
     1721.6     16.948      71.48     2.5126  -0.018306    0.16846
     1721.7     16.365     71.429     2.5208  -0.021557    0.16636
     1721.8     16.235     70.886     2.5249  -0.022915    0.16168
     1721.9     16.732     70.089     2.5248  -0.022423    0.15656
       1722     17.592     69.564     2.5231  -0.020208    0.15488
     1722.1     18.401     69.533     2.5221  -0.017013     0.1584
     1722.2     19.245     69.734     2.5209  -0.014491    0.16423
     1722.3     20.195     69.956     2.5135  -0.013772    0.16849
     1722.4     21.163     70.295     2.4999  -0.012561    0.16997
     1722.5     22.247     70.858     2.4897  -0.007279     0.1698
     1722.6     23.529     71.482     2.4905   0.001893    0.16884
     1722.7     24.538     71.893     2.5043   0.012023    0.16675
     1722.8     24.463     72.039     2.5297   0.019118    0.16355
     1722.9     23.089     72.074     2.5544   0.018472    0.16027
       1723     21.059     72.156     2.5654   0.010294    0.15757
     1723.1     19.347     72.303     2.5634   0.000997    0.15584
     1723.2     18.719     72.375     2.5569  -0.004994    0.15693
     1723.3     19.065     72.206     2.5517  -0.008245    0.16103
     1723.4      19.42     71.796     2.5495  -0.011146    0.16418
     1723.5     19.147     71.352      2.548   -0.01536    0.16387
     1723.6     18.188     71.028     2.5453    -0.0204      0.161
     1723.7     16.658     70.795     2.5427  -0.024329    0.15683
     1723.8     15.273     70.675      2.541  -0.025982    0.15325
     1723.9     14.657     70.742     2.5388  -0.025425     0.1525
       1724     14.507     70.975     2.5366  -0.023031    0.15515
     1724.1     14.589     71.414     2.5359  -0.019517     0.1603
     1724.2     15.247     72.074     2.5369  -0.016038    0.16633
     1724.3     16.667     72.754     2.5381   -0.01371    0.17083
     1724.4     18.731     73.389      2.538  -0.012718    0.17183
     1724.5     20.995     73.982     2.5368  -0.012103    0.16906
     1724.6     22.446     74.239     2.5357  -0.010843    0.16422
     1724.7      22.38     74.046     2.5348  -0.008981     0.1591
     1724.8     20.951     73.645      2.534  -0.007112    0.15489
     1724.9     19.013     73.238     2.5325  -0.006183    0.15303
       1725     17.436     72.889      2.528   -0.00767    0.15344
     1725.1      16.73       72.6     2.5195  -0.011435    0.15408
     1725.2     16.954     72.305     2.5112  -0.014905    0.15318
     1725.3     17.575      71.95     2.5078  -0.016209     0.1504
     1725.4     17.802      71.57     2.5103  -0.015506     0.1461
     1725.5     17.472     71.232     2.5162  -0.013696    0.14035
     1725.6     16.907     70.942     2.5233  -0.011668    0.13445
     1725.7     16.422     70.648     2.5294  -0.010333    0.13144
     1725.8      16.16     70.286     2.5316  -0.009888    0.13217
     1725.9     16.193     69.918     2.5303  -0.009305    0.13611
       1726     16.563     69.789     2.5281  -0.008253    0.14312
     1726.1      17.13     70.081     2.5231  -0.007987    0.15215
     1726.2     17.854      70.75     2.5146  -0.008414    0.16031
     1726.3     18.825     71.511     2.5072  -0.008387    0.16453
     1726.4     19.368     71.969        2.5  -0.008504    0.16518
     1726.5      18.88      72.04     2.4898   -0.00924    0.16398
     1726.6      17.83     72.139     2.4783  -0.009846    0.16195
     1726.7     16.404     72.268     2.4666  -0.010506    0.16175
     1726.8     14.767     72.111      2.456   -0.01195    0.16513
     1726.9     13.925     71.724     2.4514  -0.014208    0.16969
       1727     13.847     71.469     2.4545  -0.016768    0.17355
     1727.1      13.74     71.488     2.4635  -0.018692    0.17694
     1727.2     13.979     71.461     2.4782  -0.018982    0.17874
     1727.3     14.667     71.289     2.4925  -0.017463    0.17829
     1727.4     15.231     71.239     2.5006   -0.01443    0.17669
     1727.5     15.616     71.393     2.5077  -0.010084    0.17559
     1727.6     15.985     71.856     2.5156   -0.00681    0.17499
     1727.7     16.362     72.694     2.5194  -0.006402     0.1733
     1727.8     16.797     73.319     2.5256  -0.006879    0.17109
     1727.9      17.43     73.263     2.5365  -0.006987    0.16875
