~Version ---------------------------------------------------
VERS.     2.0 : CWLS log ASCII Standard -VERSION 2.0
WRAP.      NO : ONE LINE PER DEPTH STEP
~Well ------------------------------------------------------
STRT.M                           458.4 : First Index Value
STOP.M                       2563.4002 : Last Index Value
STEP.M             0.10000000000002274 : Frame Spacing
NULL.                          -999.25 : Absent Value
WELL.                           P05-05 : Well Name
FLD .     FINDER_composites_22-02-2005 : Field Name
CNTY.                                  : County
STAT.                                  : State
CTRY.                                  : Country
LOC .                                  : Location
API .                                  : API Number
DATE.                                  : Date
COMP.                              MOB : Company Name
SRVC.                                  : Service Company
~Curves ----------------------------------------------------
DEPT.M         : 
GR  .GAPI      : 
DT  .US/F      : 
RHOB.G/C3      : 
DRHO.G/C3      : 
NPHI.V/V       : 
~Params ----------------------------------------------------
TDD .M            2575.0 : Total Depth (Driller)
UBID.               7552 : Unique Borehole Id
PDAT.     Mean Sea Level : Permanent Datum
EPD .M               0.0 : Elevation of Permanent Datum (PDAT) above Mean Sea Level
LMF .                    : Logging Measured From (Name of Logging Elevation Reference)
APD .M              36.4 : Elevation of Depth Reference (LMF) Above Permanent Datum
~Other -----------------------------------------------------
composite_curve_qc
~ASCII -----------------------------------------------------
      458.4     52.913     162.02     2.0384   0.061451    0.39115
      458.5     50.998      160.6     2.0443   0.062855    0.38208
      458.6     49.401      159.5     2.0476   0.062578    0.37709
      458.7     48.608     158.58     2.0508   0.060337    0.37586
      458.8     48.289      157.8     2.0545   0.055118    0.37975
      458.9     47.846     157.34     2.0595   0.047396    0.38732
        459     46.578     157.19     2.0653   0.038221    0.39396
      459.1     44.022     157.04     2.0694   0.028305     0.3959
      459.2     40.866     156.88     2.0715    0.01934    0.39173
      459.3     38.225     157.22     2.0729   0.012781     0.3831
      459.4     36.478     158.24     2.0731   0.008115    0.37557
      459.5     35.555     159.17     2.0712   0.004106    0.37595
      459.6     35.197      159.4     2.0678   0.000681    0.38357
      459.7     35.082     159.43     2.0649  -0.001449    0.39073
      459.8     35.296     159.68     2.0628  -0.002325    0.39686
      459.9     35.975     159.99     2.0604   -0.00235    0.40183
        460     36.752      160.2     2.0576  -0.001718    0.39822
      460.1     37.306     160.25     2.0539  -0.000782    0.39037
      460.2     37.505     160.04     2.0486   0.000314    0.38825
      460.3     37.229     159.54     2.0436   0.001883    0.38914
      460.4       36.9     158.76     2.0416   0.004065    0.38996
      460.5     37.165     157.62     2.0449   0.006329    0.39256
      460.6     38.032     156.11      2.054   0.007689    0.39543
      460.7     39.051     154.57     2.0686   0.007706    0.39796
      460.8     40.032      153.6     2.0876   0.007488    0.40333
      460.9     41.368     153.44     2.1097   0.008795    0.41231
        461      43.38     153.89     2.1321   0.012642    0.41859
      461.1     45.919     154.77     2.1508   0.019473    0.41841
      461.2     48.536     155.96     2.1642   0.028548    0.42167
      461.3     50.484     157.26     2.1711   0.036867    0.43062
      461.4      51.08     158.25     2.1696   0.041739    0.43613
      461.5     50.819     158.43     2.1637   0.044125    0.43992
      461.6     50.488     157.72     2.1588   0.046137    0.44195
      461.7     50.248     156.62     2.1561    0.04932    0.43447
      461.8     49.972     155.87     2.1531   0.055062    0.42356
      461.9      49.48     155.83     2.1469   0.063086    0.41708
        462     48.622     156.26     2.1349   0.070862    0.40975
      462.1      47.61     156.84     2.1174    0.07586    0.39558
      462.2     46.735      157.7     2.0995   0.076839    0.37799
      462.3     45.959     159.34     2.0902   0.074672    0.36701
      462.4     45.325     160.92     2.0924   0.071607    0.36785
      462.5     44.882     161.53     2.1014   0.069159    0.37716
      462.6     44.651     161.55     2.1132   0.067558    0.39085
      462.7     45.021     161.58     2.1261   0.066878    0.40607
      462.8     46.262     161.64     2.1376   0.064043    0.42123
      462.9     47.981     161.14      2.142   0.055423    0.43277
        463     49.321     160.15     2.1457   0.046342    0.43839
      463.1     49.831     159.45     2.1571   0.042508    0.43981
      463.2     49.688     159.68     2.1646   0.041627     0.4404
      463.3      48.89     159.78     2.1667   0.044562    0.44183
      463.4     46.965     158.11     2.1762   0.052684    0.44341
      463.5     44.278      156.1     2.1828   0.057477    0.44713
      463.6     41.726     154.87      2.183   0.054499    0.45185
      463.7     40.037     153.55     2.1884   0.047295    0.45249
      463.8     39.918     152.69     2.1951   0.036976    0.44752
      463.9     41.089     152.62     2.1978   0.026087     0.4378
        464     42.669     152.66        2.2   0.017266    0.42491
      464.1     44.114     152.53     2.1993   0.011655    0.41635
      464.2     44.754     152.23      2.195   0.008192    0.41105
      464.3     44.229     152.04     2.1911   0.006328    0.39689
      464.4     44.432     152.11     2.1888   0.005286     0.3823
      464.5     46.435      152.4     2.1875   0.004757    0.37814
      464.6     47.686     152.66     2.1887   0.005322    0.37689
      464.7     48.002     152.73     2.1915   0.006541    0.37909
      464.8     48.421     152.55     2.1939   0.007978    0.38619
      464.9     47.651     152.11     2.1968   0.010263    0.38751
        465     45.895     151.44     2.1986   0.012565    0.37761
      465.1      44.49     150.67     2.1969   0.013149     0.3633
      465.2     43.026     150.05     2.1922   0.011536    0.35483
      465.3     41.676     149.74     2.1857   0.008444    0.35453
      465.4     41.438      149.8       2.18   0.005391    0.35606
      465.5     42.377     150.11     2.1782   0.003843    0.35791
      465.6     44.352     150.41      2.182   0.004711     0.3579
      465.7      46.74     150.45     2.1884   0.007462    0.35403
      465.8     48.283     150.22     2.1932   0.010035    0.34987
      465.9     48.347     149.77      2.194    0.01151    0.35036
        466     47.566     149.15     2.1914   0.012498    0.35683
      466.1     46.191     148.47     2.1842   0.012853     0.3662
      466.2     44.464     147.97     2.1738   0.012789    0.37401
      466.3     42.748     147.82     2.1645   0.013336     0.3781
      466.4     41.366     147.87     2.1558   0.014695    0.37757
      466.5     40.579     147.94     2.1478   0.017208    0.37329
      466.6     40.452     148.08     2.1424   0.021496    0.36892
      466.7     41.177     148.31     2.1397   0.026932    0.36712
      466.8     42.514     148.67     2.1383   0.032254    0.36598
      466.9     43.696     149.12     2.1385   0.036698    0.36109
        467     44.276     149.45     2.1393   0.038925    0.35491
      467.1     44.106     149.57     2.1371   0.037202    0.35066
      467.2     43.143     149.62     2.1295   0.031398    0.34706
      467.3     41.753      149.6     2.1203   0.024254    0.34718
      467.4     40.623     149.32     2.1149   0.018925    0.35244
      467.5     40.186     148.67     2.1143   0.016465    0.35792
      467.6      40.62     147.76     2.1205   0.017513    0.36283
      467.7     41.986     146.81     2.1331   0.021262    0.36882
      467.8     44.335     145.99     2.1476   0.025826    0.37517
      467.9     47.238     145.39      2.162   0.030897    0.38368
        468     49.492     144.95     2.1753   0.036341    0.39487
      468.1     49.962     144.57     2.1851   0.040283    0.40432
      468.2     48.819     144.54       2.19   0.041392    0.41046
      468.3     46.515     145.06     2.1908   0.040225    0.41114
      468.4     43.163     145.79     2.1877   0.038459    0.40113
      468.5     40.356     146.63     2.1818   0.038262    0.38541
      468.6     39.546     147.81     2.1735   0.040534    0.37324
      468.7      39.89     149.13     2.1614   0.043657    0.36511
      468.8      40.54     149.86     2.1447   0.044739     0.3614
      468.9     41.659     149.69     2.1241   0.042119    0.36464
        469     43.127     149.29     2.1014   0.036545     0.3726
      469.1     44.736     149.24     2.0812   0.030126    0.38188
      469.2     46.608     149.46     2.0684   0.024891    0.39116
      469.3     48.543     149.69      2.064   0.022165    0.39959
      469.4     49.519     149.74     2.0669    0.02204    0.40667
      469.5     48.687     149.49     2.0744   0.022671    0.41065
      469.6     46.462     148.97      2.081   0.021784    0.40901
      469.7     43.936     148.38     2.0851   0.019496    0.40354
      469.8     42.053     147.82     2.0906   0.017614    0.39776
      469.9     41.393     147.16     2.1006   0.017561    0.39157
        470     41.682     146.51     2.1156   0.020217    0.38498
      470.1     42.146     146.22     2.1349   0.025635    0.37801
      470.2     42.382     146.37     2.1558   0.032241    0.36769
      470.3     42.214      146.7     2.1738   0.037183    0.35398
