~Version ---------------------------------------------------
VERS.     2.0 : CWLS log ASCII Standard -VERSION 2.0
WRAP.      NO : ONE LINE PER DEPTH STEP
~Well ------------------------------------------------------
STRT.M                           458.4 : First Index Value
STOP.M                       2563.4002 : Last Index Value
STEP.M             0.10000000000002274 : Frame Spacing
NULL.                          -999.25 : Absent Value
WELL.                           P05-05 : Well Name
FLD .     FINDER_composites_22-02-2005 : Field Name
CNTY.                                  : County
STAT.                                  : State
CTRY.                                  : Country
LOC .                                  : Location
API .                                  : API Number
DATE.                                  : Date
COMP.                              MOB : Company Name
SRVC.                                  : Service Company
~Curves ----------------------------------------------------
DEPT.M         : 
GR  .GAPI      : 
DT  .US/F      : 
RHOB.G/C3      : 
DRHO.G/C3      : 
NPHI.V/V       : 
~Params ----------------------------------------------------
TDD .M            2575.0 : Total Depth (Driller)
UBID.               7552 : Unique Borehole Id
PDAT.     Mean Sea Level : Permanent Datum
EPD .M               0.0 : Elevation of Permanent Datum (PDAT) above Mean Sea Level
LMF .                    : Logging Measured From (Name of Logging Elevation Reference)
APD .M              36.4 : Elevation of Depth Reference (LMF) Above Permanent Datum
~Other -----------------------------------------------------
composite_curve_qc
~ASCII -----------------------------------------------------
# ...
      590.4     63.938      163.7     1.7765   0.010243    0.48906
      590.5     64.812     162.79     1.7683   0.004536    0.49566
      590.6     65.591     161.08       1.77   0.003373    0.49939
      590.7     66.056     158.98     1.7789   0.005847    0.49984
      590.8     66.949     157.25     1.7966   0.009859    0.49484
      590.9     68.076     156.09     1.8244   0.014916    0.48898
        591     69.134     155.67     1.8617   0.020809    0.48781
      591.1     69.892     156.47     1.9042   0.026484    0.49002
      591.2     68.842     158.03      1.948   0.032505     0.4933
      591.3      65.55     159.16      1.984   0.040115    0.49282
      591.4     62.895     159.32     2.0084   0.049006    0.48547
      591.5     62.429     158.65       2.02   0.056509    0.47583
      591.6     64.228     157.59     2.0236   0.059647    0.47133
      591.7     67.289     155.89     2.0307   0.058892    0.46983
      591.8     70.109     153.59     2.0489   0.054914    0.47117
      591.9     70.937     151.46     2.0771   0.048885     0.4746
        592     69.653     150.38     2.1079   0.044008    0.47283
      592.1     67.803     150.45     2.1358   0.042628    0.46028
      592.2     67.605     150.91     2.1561   0.044244    0.44053
      592.3     68.823     151.41     2.1666   0.045853     0.4236
      592.4     70.734     151.87     2.1687   0.045314    0.41761
      592.5     72.821     152.41     2.1678   0.042348    0.42052
      592.6     74.971     153.09     2.1621    0.03661    0.42709
      592.7     76.483     153.56     2.1516   0.029412    0.43442
      592.8     76.529     153.55     2.1422   0.024286    0.44246
      592.9     75.478     153.63     2.1364   0.023631    0.44848
        593     74.011     153.87     2.1351   0.027891    0.45048
      593.1     72.432     153.63     2.1372   0.035699    0.44937
      593.2     71.005     153.15     2.1423   0.045588     0.4439
      593.3     70.123     152.78     2.1489   0.055479    0.43322
      593.4     69.781     152.31     2.1547   0.063786    0.42167
      593.5     69.322     151.67     2.1597   0.069594    0.41872
      593.6     68.729     151.14     2.1624    0.07138    0.42781
      593.7     68.989     151.07      2.161    0.06779    0.44067
      593.8     70.228     151.72     2.1558   0.059784    0.44982
      593.9     71.872     152.98     2.1469   0.049314    0.45286
        594     73.513     154.35     2.1342   0.039699    0.45111
      594.1     74.712     155.28     2.1229   0.036342      0.447
      594.2      74.74     155.61      2.116   0.039961    0.44548
      594.3     73.232     155.53     2.1113   0.045694    0.45129
      594.4     71.169     154.92     2.1107   0.050259     0.4617
      594.5     69.756     153.68     2.1155   0.052562    0.46946
      594.6     69.151     152.26     2.1212   0.051571    0.47116
      594.7     69.084     151.46     2.1255   0.048349    0.46821
      594.8     69.087     151.47     2.1277   0.045167    0.46354
      594.9     68.576     151.84     2.1266   0.043199    0.45984
        595     67.497      152.4     2.1241   0.042856    0.45947
      595.1     66.211     153.21     2.1218   0.044229    0.45864
      595.2     65.044        154     2.1172   0.046544    0.44955
      595.3     64.343     154.41      2.108   0.047839    0.43345
      595.4     64.255     154.34     2.0948   0.045789    0.41763
      595.5     64.695      153.9     2.0802   0.040186    0.40652
      595.6     65.826     153.21       2.07   0.034081    0.40481
      595.7     67.527     152.47     2.0698   0.031267    0.41388
      595.8     68.933     152.06     2.0783   0.033272    0.42756
      595.9      69.43     152.15     2.0888    0.03854    0.44103
        596     69.305     152.57     2.0935   0.043376    0.45335
      596.1     69.278     152.97     2.0875   0.044383    0.46231
      596.2     69.766     153.15     2.0719   0.040638    0.46552
      596.3     70.129     153.04     2.0523    0.03358    0.46264
      596.4     69.272     152.67     2.0357   0.025914    0.45309
      596.5     67.472     152.27     2.0284   0.020881    0.43576
      596.6     65.673      152.2     2.0325   0.020405    0.41491
      596.7     64.132     152.53     2.0439   0.023898     0.4016
      596.8     63.432     152.81     2.0553   0.029337    0.39929
      596.9     64.114     152.67     2.0621   0.034851    0.40294
        597     65.303     152.25     2.0632    0.03881    0.40825
      597.1      66.18     151.59     2.0585   0.040108    0.41108
      597.2     67.017     150.28     2.0494   0.038779    0.40793
      597.3     68.301     148.18     2.0409   0.035666    0.40135
      597.4     70.038      146.1     2.0359   0.031381    0.39887
      597.5     71.594     145.13     2.0356    0.02693     0.4061
      597.6     71.855     145.48     2.0429   0.024523    0.42122
      597.7     70.242     146.45     2.0567   0.026325    0.44082
      597.8     67.103     147.55     2.0696   0.032344      0.462
      597.9     63.412     149.25     2.0743   0.040133    0.47934
        598     60.299     151.71     2.0694   0.046537    0.48866
      598.1         59     153.86     2.0576   0.048274    0.48983
      598.2     59.953     154.52     2.0409   0.043764    0.48678
      598.3     61.893     153.84     2.0225   0.034301    0.48227
      598.4     62.779     152.81      2.009   0.023742    0.47596
      598.5     62.679     151.59     2.0038   0.015292     0.4673
      598.6     62.488     150.17     2.0081   0.010544    0.45631
      598.7     62.314     149.27      2.022   0.008953    0.44385
      598.8     62.765     149.42     2.0409   0.008827    0.43563
      598.9     64.416     150.89     2.0567   0.009076    0.43666
        599     66.776      153.8     2.0626   0.009416    0.44511
      599.1     68.872     157.27     2.0562   0.009573    0.45519
      599.2     70.387     160.19     2.0402   0.009237    0.46056
      599.3     72.122     162.66     2.0195   0.008455    0.45595
      599.4      73.69     164.89     2.0009   0.007639    0.44394
      599.5      74.32     166.85     1.9871   0.007135    0.43293
      599.6     74.362     168.35     1.9749    0.00709     0.4319
      599.7     73.272     169.34     1.9601   0.007668    0.44339
      599.8     70.521     170.01     1.9413   0.008426    0.46117
      599.9     68.035      170.5     1.9201   0.008666     0.4751
        600     66.533     170.54     1.9023   0.008984    0.47839
      600.1     64.561     169.97     1.8928   0.009847    0.47332
      600.2     62.131     169.84     1.8915   0.010148    0.46568
      600.3     59.558     170.59     1.8938   0.009747    0.46232
      600.4     56.505      171.3     1.8945   0.009359    0.46586
      600.5     54.416     171.24     1.8873   0.008366    0.47494
      600.6     53.986     170.43     1.8748   0.007268     0.4824
      600.7     53.983     169.29     1.8674   0.007644    0.48118
      600.8     53.318     167.61      1.866   0.008514    0.47479
      600.9     51.787     165.65     1.8687   0.008686    0.47072
        601     50.326     164.46      1.881   0.009043    0.46721
      601.1     49.768      164.5      1.899   0.010028    0.46438
      601.2     50.813     165.42      1.915   0.011472    0.46594
      601.3     54.065     166.91     1.9249   0.013262    0.47682
      601.4     58.135     168.36     1.9193   0.015625    0.48576
      601.5     61.393     169.46     1.8936   0.019091    0.48231
      601.6     64.409     170.56     1.8569   0.023575     0.4809
      601.7     65.792     171.56     1.8199   0.027539     0.4843
      601.8     63.996     171.92     1.7912   0.029775    0.48668
      601.9     61.153     171.53     1.7794   0.029919    0.49873
        602     58.527     170.92     1.7825    0.02652    0.51797
      602.1     56.451        171     1.7892   0.019425    0.52781
      602.2     56.832     171.56     1.8011   0.013345    0.53132
      602.3     59.548     172.05      1.819   0.010393    0.53041
