~Version ---------------------------------------------------
VERS.     2.0 : CWLS log ASCII Standard -VERSION 2.0
WRAP.      NO : ONE LINE PER DEPTH STEP
~Well ------------------------------------------------------
STRT.M                           458.4 : First Index Value
STOP.M                       2563.4002 : Last Index Value
STEP.M             0.10000000000002274 : Frame Spacing
NULL.                          -999.25 : Absent Value
WELL.                           P05-05 : Well Name
FLD .     FINDER_composites_22-02-2005 : Field Name
CNTY.                                  : County
STAT.                                  : State
CTRY.                                  : Country
LOC .                                  : Location
API .                                  : API Number
DATE.                                  : Date
COMP.                              MOB : Company Name
SRVC.                                  : Service Company
~Curves ----------------------------------------------------
DEPT.M         : 
GR  .GAPI      : 
DT  .US/F      : 
RHOB.G/C3      : 
DRHO.G/C3      : 
NPHI.V/V       : 
~Params ----------------------------------------------------
TDD .M            2575.0 : Total Depth (Driller)
UBID.               7552 : Unique Borehole Id
PDAT.     Mean Sea Level : Permanent Datum
EPD .M               0.0 : Elevation of Permanent Datum (PDAT) above Mean Sea Level
LMF .                    : Logging Measured From (Name of Logging Elevation Reference)
APD .M              36.4 : Elevation of Depth Reference (LMF) Above Permanent Datum
~Other -----------------------------------------------------
composite_curve_qc
~ASCII -----------------------------------------------------
# ...
       2136     97.752     68.042     2.9264  -0.005151    0.28263
     2136.1     87.288     67.202     2.9059  -0.005124    0.26321
     2136.2     80.409     67.085     2.8645  -0.008831    0.24694
     2136.3     76.964     67.842     2.7971  -0.015976    0.23153
     2136.4     75.345     69.691     2.6912  -0.024505    0.21515
     2136.5     74.691     72.261     2.5525  -0.029653    0.19712
     2136.6     75.666      74.87     2.3987  -0.028295    0.17845
     2136.7     79.014     76.931     2.2575  -0.020575    0.16449
     2136.8     84.044     78.651     2.1488  -0.007584    0.16236
     2136.9     88.863      80.12     2.0844   0.007557    0.17965
       2137     90.873      80.52     2.0663   0.018779    0.21743
     2137.1     88.956     80.146     2.0832   0.022463    0.26511
     2137.2      83.55     80.254      2.123   0.018838    0.30415
     2137.3     76.027     80.897     2.1775   0.010799    0.32189
     2137.4     67.777     81.004     2.2365   0.001285    0.31378
     2137.5     60.661     80.094     2.2864  -0.006303    0.28127
     2137.6     56.755     79.736     2.3197  -0.010033    0.23833
     2137.7     56.809     80.518     2.3176  -0.010892     0.1994
     2137.8     60.138     81.102     2.2525  -0.010419    0.17243
     2137.9     65.363     81.283     2.1378  -0.008271    0.15851
       2138     70.243     81.689     2.0208  -0.004144     0.1583
     2138.1     73.224       82.2     1.9349   0.001651    0.17404
     2138.2     75.381     81.577     1.8956   0.009311    0.20135
     2138.3     77.727     79.613     1.9049   0.015508    0.23219
     2138.4     79.065     78.191      1.958   0.015764    0.26307
     2138.5     79.596     78.119      2.037   0.011209    0.28563
     2138.6     80.264     78.144      2.115   0.006627    0.29221
     2138.7     80.415     76.475     2.1798   0.004653    0.28367
     2138.8     79.687     74.969     2.2192   0.005057    0.26875
     2138.9     78.396     76.055     2.2365   0.006466    0.25705
       2139     76.106     77.221     2.2474   0.007642    0.25207
     2139.1     72.147     77.121     2.2674    0.00576     0.2546
     2139.2     66.928     77.517     2.2985   0.000462    0.25975
     2139.3     63.413     79.665     2.3347  -0.004028    0.25858
     2139.4     62.784     82.058     2.3624  -0.005832    0.24846
     2139.5     62.767     82.064     2.3742   -0.00652    0.23711
     2139.6     63.255     82.219       2.38  -0.006216    0.22415
     2139.7     63.895      83.42      2.389  -0.005349     0.2118
     2139.8      63.92     83.552     2.3995  -0.005205     0.2039
     2139.9     62.218     83.422     2.4046  -0.006741    0.20611
       2140     59.597     84.052     2.3992  -0.009541    0.21651
     2140.1     58.638     84.895     2.3858  -0.012531    0.22637
     2140.2     59.233     85.752     2.3677  -0.015069    0.23518
     2140.3     60.203     86.412     2.3536  -0.016336    0.24271
     2140.4     61.352       86.7     2.3507  -0.015886      0.246
     2140.5     61.876     86.708     2.3591  -0.014765    0.24764
     2140.6     61.023     86.937     2.3709   -0.01429    0.25206
     2140.7     59.044     87.789     2.3784  -0.014412    0.25739
     2140.8     56.701     89.027      2.375  -0.015115    0.26203
     2140.9     54.708     90.091     2.3586  -0.016659    0.26515
       2141     52.942     90.834     2.3329  -0.018983    0.26541
     2141.1     51.131     91.101     2.3056  -0.021314    0.26139
     2141.2     48.737     90.863     2.2847  -0.022709    0.25451
     2141.3     45.049     90.236     2.2714  -0.022703    0.24999
     2141.4     40.106     89.185     2.2647  -0.021365    0.25054
     2141.5     35.366     87.916     2.2622  -0.019655    0.25368
     2141.6         32     87.057     2.2603  -0.019207     0.2542
     2141.7     30.686     86.658     2.2588  -0.020944    0.24814
     2141.8     31.388     86.254     2.2602  -0.024515    0.23684
     2141.9     33.627     85.993     2.2647  -0.028674    0.22661
       2142       37.1     85.976      2.271  -0.031831    0.22208
     2142.1     41.055     86.024     2.2768  -0.032747    0.22247
     2142.2     43.591       86.2     2.2792  -0.031429     0.2248
     2142.3     44.051     86.777     2.2776  -0.028618    0.22676
     2142.4     43.566     87.825     2.2728  -0.025616    0.22832
     2142.5     42.407     88.899     2.2644  -0.024136    0.23101
     2142.6     41.023     89.556     2.2547  -0.024657    0.23726
     2142.7     40.597     89.739     2.2499  -0.025843    0.24597
     2142.8     41.688     89.398     2.2557  -0.026492    0.24949
     2142.9      44.03     88.679     2.2735  -0.025833    0.24231
       2143     47.313     87.809     2.2997  -0.023525     0.2278
     2143.1     52.033     86.561     2.3302  -0.019682    0.21061
     2143.2     57.835     84.896     2.3612  -0.014536    0.19598
     2143.3     63.347     83.441     2.3896  -0.008566    0.18903
     2143.4     67.723     82.892     2.4096  -0.003179    0.19195
     2143.5      70.52     83.019     2.4189   0.000401    0.20072
     2143.6     71.379     82.958     2.4214   0.001485    0.20928
     2143.7     70.929      82.53     2.4212   -0.00065    0.21527
     2143.8     70.459     82.009     2.4257  -0.005136    0.21778
     2143.9     70.477     81.072     2.4437  -0.010192    0.21373
       2144     70.658     78.943     2.4767  -0.015281     0.2004
     2144.1     70.253     75.444      2.519  -0.019965    0.17735
     2144.2     68.638     71.385     2.5638  -0.022809    0.14704
     2144.3     66.105     67.573      2.605  -0.023411     0.1152
     2144.4     64.088     64.579     2.6362  -0.023034   0.090695
     2144.5     64.096     63.014      2.652  -0.023263   0.081926
     2144.6       66.2     63.082     2.6505  -0.024869   0.090428
     2144.7     69.256     64.627     2.6345  -0.027306    0.11123
     2144.8     72.069     67.381     2.6095  -0.029065    0.13769
     2144.9     73.803     70.694     2.5805    -0.0288    0.16319
       2145     74.433     73.844     2.5504  -0.026505    0.18383
     2145.1      74.26     76.578     2.5202  -0.023508    0.19946
     2145.2     72.849     78.986     2.4893  -0.021386     0.2114
     2145.3     69.988     81.264     2.4566  -0.020719    0.22184
     2145.4     66.332     83.505     2.4216  -0.021122    0.23262
     2145.5     61.912     85.526     2.3851    -0.0221    0.24215
     2145.6     56.924     86.924       2.35  -0.023421    0.24728
     2145.7     52.727     87.484     2.3204  -0.024922    0.24721
     2145.8     49.767     87.367     2.3004  -0.026392    0.24209
     2145.9     47.681     86.777     2.2933  -0.027391     0.2328
       2146     46.639     85.817     2.2981  -0.027461    0.22265
     2146.1     46.617     84.832     2.3097   -0.02661    0.21587
     2146.2     47.314     84.342     2.3214  -0.025499    0.21334
     2146.3     48.743     84.617     2.3268  -0.024939    0.21139
     2146.4     50.624     85.476     2.3227  -0.025044     0.2064
     2146.5     53.154     86.404     2.3129  -0.024705    0.19793
     2146.6     57.785     86.859     2.3074  -0.023135    0.18947
     2146.7     64.701     86.644     2.3097  -0.021669     0.1892
     2146.8      72.76     85.913     2.3176  -0.021977    0.20405
     2146.9      80.98     84.908     2.3321  -0.024505    0.23225
       2147     87.559     83.771     2.3519  -0.028865    0.26401
     2147.1     90.449     82.344     2.3761  -0.033453    0.28576
     2147.2     89.356     80.361     2.4111  -0.035734    0.28132
     2147.3     85.651     77.736     2.4591  -0.035501    0.25015
     2147.4     80.656     74.601     2.5146  -0.034074    0.20458
     2147.5     75.933     71.444      2.568  -0.032014    0.15866
     2147.6     73.268     68.753     2.6092  -0.029318    0.12491
     2147.7     74.394     66.988      2.629  -0.026004    0.11457
     2147.8     78.879     66.634     2.6293  -0.022354    0.12404
     2147.9      84.73     67.776     2.6169  -0.019206    0.14384
