~Version ---------------------------------------------------
VERS.     2.0 : CWLS log ASCII Standard -VERSION 2.0
WRAP.      NO : ONE LINE PER DEPTH STEP
~Well ------------------------------------------------------
STRT.M                           458.4 : First Index Value
STOP.M                       2563.4002 : Last Index Value
STEP.M             0.10000000000002274 : Frame Spacing
NULL.                          -999.25 : Absent Value
WELL.                           P05-05 : Well Name
FLD .     FINDER_composites_22-02-2005 : Field Name
CNTY.                                  : County
STAT.                                  : State
CTRY.                                  : Country
LOC .                                  : Location
API .                                  : API Number
DATE.                                  : Date
COMP.                              MOB : Company Name
SRVC.                                  : Service Company
~Curves ----------------------------------------------------
DEPT.M         : 
GR  .GAPI      : 
DT  .US/F      : 
RHOB.G/C3      : 
DRHO.G/C3      : 
NPHI.V/V       : 
~Params ----------------------------------------------------
TDD .M            2575.0 : Total Depth (Driller)
UBID.               7552 : Unique Borehole Id
PDAT.     Mean Sea Level : Permanent Datum
EPD .M               0.0 : Elevation of Permanent Datum (PDAT) above Mean Sea Level
LMF .                    : Logging Measured From (Name of Logging Elevation Reference)
APD .M              36.4 : Elevation of Depth Reference (LMF) Above Permanent Datum
~Other -----------------------------------------------------
composite_curve_qc
~ASCII -----------------------------------------------------
# ...
      734.4     63.741     182.28     1.8778   0.021412    0.47256
      734.5     64.065     181.96     1.8862   0.026433    0.48855
      734.6      64.14     181.68     1.8913   0.028785    0.49517
      734.7     63.707     181.25      1.889   0.028563    0.49077
      734.8     62.781     180.64      1.877   0.027051    0.48662
      734.9     61.917     179.98     1.8596   0.026245    0.48304
        735     62.235     179.37     1.8439   0.026685    0.47607
      735.1     64.139     178.85     1.8354   0.027145    0.46862
      735.2      65.35     178.32     1.8353    0.02649    0.46048
      735.3     64.502     177.82     1.8417    0.02446    0.44986
      735.4      63.16     177.69      1.852   0.021721    0.44033
      735.5      61.93     178.06     1.8639   0.019151    0.43675
      735.6     60.893     178.74     1.8746   0.016754    0.44156
      735.7     61.058      179.4     1.8815   0.013908    0.45276
      735.8     61.367     179.97     1.8837   0.010577    0.46241
      735.9     60.164     180.51     1.8818   0.007976    0.46533
        736     58.095        181     1.8788    0.00718    0.46538
      736.1     56.655     181.36     1.8757   0.008245    0.46346
      736.2     56.651     181.54     1.8733   0.011534    0.45843
      736.3     57.915     181.59     1.8746   0.017583    0.45536
      736.4     59.718     181.65     1.8772   0.024594    0.45627
      736.5     61.303     181.82     1.8766   0.030633    0.45879
      736.6     61.809     181.99     1.8744   0.035713    0.46418
      736.7     61.073     182.01     1.8721   0.038617    0.47299
      736.8     59.714      181.9     1.8683   0.038481    0.48298
      736.9     58.275      181.8     1.8638   0.036688    0.49077
        737     57.522     181.83     1.8604   0.033712    0.49341
      737.1     57.993     181.97     1.8584   0.028981    0.49032
      737.2      59.29     182.11     1.8579   0.023308    0.48261
      737.3     60.637     182.24     1.8595   0.017991      0.474
      737.4     62.111     182.56     1.8655   0.013516    0.46691
      737.5     63.641     182.99     1.8764   0.012241    0.46232
      737.6     64.561     183.27     1.8899   0.015884    0.45792
      737.7     63.614     183.16     1.9029   0.023787    0.44897
      737.8     61.707     182.83     1.9124   0.032697    0.43256
      737.9     60.393     182.64     1.9162   0.037939    0.41425
        738     58.843     182.69     1.9127   0.037445    0.40459
      738.1     58.394      182.9     1.9047   0.031219    0.40549
      738.2      59.69     183.03     1.8982   0.022533     0.4114
      738.3     59.661     183.02     1.8965   0.015601     0.4247
      738.4     58.365     182.98     1.8999   0.012588    0.43684
      738.5       58.5     183.05      1.906   0.012633    0.43795
      738.6     59.486     183.11     1.9143   0.015572    0.43622
      738.7     60.676     183.05     1.9231   0.020625    0.43803
      738.8     61.702     182.93     1.9296   0.026409    0.44112
      738.9     61.362     182.78     1.9317   0.031605    0.44445
        739     59.332     182.64     1.9303   0.036909    0.44941
      739.1     57.222     182.51     1.9289   0.042747    0.45881
      739.2     56.421     182.37     1.9267   0.045683    0.47125
      739.3     57.192     182.24     1.9257   0.044222    0.48254
      739.4     58.266     182.22     1.9296   0.040182    0.48732
      739.5      59.25     182.21     1.9349   0.033994    0.48572
      739.6     59.754     182.02      1.937   0.026672    0.48464
      739.7     59.144     181.56     1.9359    0.02076    0.49178
      739.8     57.456     181.11     1.9303   0.016574     0.5035
      739.9     55.765      180.8     1.9213   0.013126     0.5126
        740      55.35     180.26     1.9131   0.010521    0.51699
      740.1     55.909     179.48     1.9079   0.008915    0.51483
      740.2     56.556     178.77     1.9066   0.008414    0.50962
      740.3     57.188     178.36     1.9082   0.009118    0.51096
      740.4     57.453     178.07      1.912   0.011058    0.51816
      740.5     57.105     177.67     1.9174   0.013989    0.52037
      740.6     56.968     177.23     1.9246   0.017169    0.50973
      740.7     58.077     176.83     1.9308   0.019397    0.48868
      740.8     60.013      176.5     1.9327   0.020029     0.4658
      740.9     60.785     176.15     1.9325   0.020884    0.44642
        741     59.959     175.75     1.9348   0.025312    0.43877
      741.1     58.682     175.27     1.9409   0.033769    0.44453
      741.2      57.41     174.69     1.9466   0.042164    0.45244
      741.3     57.061     174.38     1.9495   0.046708    0.45646
      741.4     58.415     174.74     1.9495    0.04585    0.45953
      741.5     60.631     175.67     1.9448   0.039679    0.46364
      741.6     62.612      176.5     1.9374   0.031698    0.47032
      741.7     63.811     176.77      1.933   0.026938    0.47848
      741.8     63.893     176.82     1.9326   0.026728    0.48122
      741.9     63.153      177.1     1.9324   0.028308    0.47404
        742     62.702     177.55     1.9289    0.02859    0.46175
      742.1       63.5     177.88     1.9233   0.026924    0.45443
      742.2     65.177     178.14      1.918   0.024701    0.45857
      742.3     66.485     178.52     1.9161   0.024213    0.47047
      742.4     66.639      178.9       1.92   0.026777    0.48131
      742.5     65.237     179.04     1.9275   0.030757    0.48783
      742.6     62.299     178.98     1.9332   0.033605    0.48983
      742.7      58.79     178.89      1.936   0.034371    0.48468
      742.8     56.077        179     1.9356   0.033134     0.4783
      742.9     54.962     179.38     1.9323   0.031122    0.47594
        743     55.348     179.84     1.9294   0.030034    0.46885
      743.1     56.676     180.25     1.9276    0.02953    0.45785
      743.2     58.209     180.53     1.9256   0.028649    0.45222
      743.3     59.063     180.61      1.924    0.02789    0.44613
      743.4     58.754     180.47     1.9213   0.027683    0.43843
      743.5     57.578     180.21     1.9153   0.028264    0.43756
      743.6     56.267     179.97      1.909    0.03052    0.43719
      743.7     55.408     179.85     1.9055   0.034015    0.43232
      743.8     55.045     179.73     1.9024   0.036293    0.43258
      743.9     54.919     179.24     1.8979   0.035322    0.44201
        744     55.188     178.39     1.8925   0.031231    0.45528
      744.1     56.391     177.75     1.8873   0.025197    0.46867
      744.2     58.601     177.73     1.8836   0.018539    0.48112
      744.3     61.055      178.2     1.8843   0.013424     0.4914
      744.4     62.686     178.73     1.8912   0.011421    0.49885
      744.5     62.896     179.14     1.9006   0.012174    0.50461
      744.6     62.055     179.44     1.9083   0.015044    0.50779
      744.7     61.122     179.55     1.9135   0.019339    0.50527
      744.8     60.924     179.17     1.9164    0.02313    0.49899
      744.9     61.802     178.27     1.9214    0.02525    0.49223
        745     63.304     177.13     1.9384   0.027231    0.48638
      745.1     63.874     175.86     1.9706   0.031431     0.4867
      745.2     62.948     174.86     2.0084   0.037703    0.49236
      745.3     61.701     175.03     2.0353   0.044209    0.49299
      745.4     60.486     176.58      2.041   0.049069    0.48835
      745.5     59.095     178.66     2.0242   0.049575    0.47994
      745.6     58.363     180.06     1.9909   0.044414    0.46033
      745.7     58.687     180.63     1.9551   0.037028    0.43604
      745.8     59.635     180.72     1.9293   0.032345    0.41828
      745.9     60.618     180.23      1.918   0.032528    0.40701
        746     61.451     179.11     1.9161   0.036007    0.40589
      746.1     61.979     177.72      1.916   0.040035    0.41778
      746.2     61.628     176.79     1.9115   0.042784     0.4278
      746.3     60.621      176.7     1.9013   0.044392    0.43156
