~Version ---------------------------------------------------
VERS.     2.0 : CWLS log ASCII Standard -VERSION 2.0
WRAP.      NO : ONE LINE PER DEPTH STEP
~Well ------------------------------------------------------
STRT.M                           458.4 : First Index Value
STOP.M                       2563.4002 : Last Index Value
STEP.M             0.10000000000002274 : Frame Spacing
NULL.                          -999.25 : Absent Value
WELL.                           P05-05 : Well Name
FLD .     FINDER_composites_22-02-2005 : Field Name
CNTY.                                  : County
STAT.                                  : State
CTRY.                                  : Country
LOC .                                  : Location
API .                                  : API Number
DATE.                                  : Date
COMP.                              MOB : Company Name
SRVC.                                  : Service Company
~Curves ----------------------------------------------------
DEPT.M         : 
GR  .GAPI      : 
DT  .US/F      : 
RHOB.G/C3      : 
DRHO.G/C3      : 
NPHI.V/V       : 
~Params ----------------------------------------------------
TDD .M            2575.0 : Total Depth (Driller)
UBID.               7552 : Unique Borehole Id
PDAT.     Mean Sea Level : Permanent Datum
EPD .M               0.0 : Elevation of Permanent Datum (PDAT) above Mean Sea Level
LMF .                    : Logging Measured From (Name of Logging Elevation Reference)
APD .M              36.4 : Elevation of Depth Reference (LMF) Above Permanent Datum
~Other -----------------------------------------------------
composite_curve_qc
~ASCII -----------------------------------------------------
# ...
     1286.4      19.15     96.532     2.4448  -0.001906    0.26614
     1286.5     18.585     97.162     2.4451  -0.001519    0.26875
     1286.6     18.266       97.7     2.4447    -0.0026    0.27062
     1286.7     18.176     98.086     2.4442  -0.004552    0.26701
     1286.8     18.591     98.415     2.4444    -0.0069    0.26786
     1286.9     19.218     98.658     2.4449  -0.008923    0.27121
       1287     19.641     98.792     2.4443  -0.010321    0.26449
     1287.1     20.163     98.868     2.4424  -0.011273    0.24656
     1287.2     20.653     98.894     2.4401  -0.011459    0.24306
     1287.3     20.844     98.796      2.438  -0.010943    0.27224
     1287.4     21.097      98.51     2.4345  -0.010772    0.29654
     1287.5     21.385     98.193     2.4295  -0.010791    0.29374
     1287.6     21.259      98.08     2.4256  -0.010125    0.27962
     1287.7     20.763     98.051     2.4232   -0.00945    0.26669
     1287.8     20.168     98.031     2.4222  -0.008955    0.25995
     1287.9     19.942     98.084     2.4218   -0.00798    0.25684
       1288     20.473     98.195      2.421  -0.006909    0.25533
     1288.1     21.557      98.38     2.4183  -0.006457    0.24639
     1288.2     22.517     98.608      2.413  -0.006667    0.22455
     1288.3     23.416     98.635     2.4066  -0.006652    0.21017
     1288.4     24.244     98.354     2.4008  -0.005216     0.2214
     1288.5     24.572     97.989     2.3959  -0.001717    0.24853
     1305.7     37.729     98.246     2.4198  -0.025938    0.28675
     1305.8     39.094     97.818     2.4172   -0.02625    0.28316
     1305.9     39.112     97.576     2.4177  -0.026015     0.2822
       1306     38.624     97.641     2.4216  -0.024409    0.28403
     1306.1     38.027     97.982     2.4272  -0.022256     0.2849
     1306.2     37.114     98.408      2.433  -0.020033    0.28366
     1306.3     35.976     98.648     2.4389  -0.017553    0.28554
     1306.4     35.372     98.618     2.4421  -0.015927    0.28841
     1306.5     35.487     98.421     2.4412  -0.015109    0.28751
     1306.6     34.892     98.153     2.4403  -0.013041    0.28667
     1306.7     33.871     97.974     2.4406  -0.010078    0.28788
     1306.8     33.826     97.986     2.4405  -0.007931    0.29059
     1306.9     34.096     98.151     2.4421  -0.006964    0.29578
       1307     34.319     98.536     2.4455  -0.007901    0.30096
     1307.1     34.687     98.985      2.448  -0.011115    0.30202
     1307.2     35.195     98.754      2.449  -0.014972     0.3013
     1307.3     35.657     98.044     2.4482  -0.018311    0.30157
     1307.4     35.787      97.93     2.4461  -0.020903    0.30314
     1307.5     35.653     98.169     2.4432  -0.022769    0.30328
     1307.6     35.628     98.345     2.4405  -0.024132    0.30028
     1307.7     36.129     98.358     2.4389  -0.025083    0.29602
     1307.8     37.098     98.359     2.4368  -0.025594    0.29274
     1307.9     37.992      98.45     2.4347  -0.024953    0.29413
       1308     38.473      98.52     2.4355  -0.022758    0.30068
     1308.1     39.387     98.614     2.4384  -0.020278    0.30686
     1308.2     41.175     98.795     2.4419  -0.018719    0.30625
     1308.3     42.829     98.982     2.4467  -0.018037    0.30004
     1308.4     44.083      99.01     2.4495  -0.018993     0.2903
     1308.5     44.463     98.816     2.4478  -0.021637    0.28169
     1308.6     43.143     98.603     2.4453  -0.024114    0.27816
     1308.7     40.683     98.416     2.4442  -0.025662    0.27815
     1308.8      38.61     98.196      2.445  -0.026211    0.27707
     1308.9     37.319     97.907     2.4476  -0.025714    0.27359
       1309     36.885     97.608     2.4507  -0.024825    0.26865
     1309.1     36.914     97.362     2.4521  -0.024334    0.26434
     1309.2     36.926     97.111     2.4519  -0.023911    0.26171
     1309.3     36.648     96.862     2.4508  -0.023505    0.26161
     1309.4     36.216     96.675     2.4498  -0.023457    0.26339
     1309.5     36.088     96.573     2.4491  -0.023651    0.26475
     1309.6     36.638     96.633     2.4485  -0.023869    0.26384
     1309.7     37.804     96.876     2.4472  -0.024106    0.25977
     1309.8     39.123      97.18     2.4451  -0.024496    0.25202
     1309.9     39.981     97.453     2.4421   -0.02508    0.24302
       1310     39.808     97.677     2.4386  -0.025789    0.23819
     1310.1     38.392     97.807      2.435  -0.026452    0.24162
     1310.2     36.735     97.952     2.4316  -0.026622    0.25216
     1310.3     36.329     98.252     2.4287   -0.02588    0.26309
     1310.4     37.482     98.581     2.4262  -0.024279     0.2684
     1310.5     39.993     98.837     2.4241  -0.022236    0.26671
     1310.6     43.143      99.05     2.4221  -0.020201    0.26108
     1310.7     45.307     99.181     2.4208  -0.018092    0.25495
     1310.8     45.598     99.256     2.4223  -0.015034    0.25175
     1310.9     44.547     99.361     2.4274  -0.010982    0.25357
       1311     42.916     99.446     2.4331  -0.007793    0.25859
     1311.1     41.484     99.432     2.4369  -0.007207    0.26319
     1311.2     40.948     99.349     2.4393  -0.009571    0.26505
     1311.3     41.391     99.272     2.4398  -0.014034     0.2639
     1311.4      42.42     99.217     2.4394  -0.018666    0.26104
     1311.5     43.787     99.133     2.4405  -0.021583    0.25805
     1311.6      45.34     98.961     2.4425  -0.022372    0.25572
     1311.7      46.26     98.671     2.4441  -0.021636    0.25393
     1311.8     45.726     98.276     2.4449  -0.020143    0.25215
     1311.9     44.227     97.864     2.4446  -0.018548    0.24974
       1312     42.526      97.62     2.4433  -0.017214    0.24647
     1312.1     41.002     97.664     2.4422  -0.016225    0.24356
     1312.2     40.468     97.891     2.4414  -0.015468    0.24327
     1312.3     41.172     98.162     2.4417  -0.014477     0.2454
     1312.4     42.072     98.443     2.4448  -0.012735    0.24733
     1312.5     42.328     98.681     2.4499  -0.010503    0.24841
     1312.6     41.869      98.82     2.4537  -0.008845    0.24988
     1312.7     40.866     98.901     2.4537  -0.008955    0.25244
     1312.8     39.636     98.997      2.448  -0.011428    0.25637
     1312.9     38.437     99.101     2.4354  -0.015638    0.26147
       1313     37.449     99.194     2.4162  -0.019567     0.2668
     1313.1     37.036     99.389     2.3949  -0.021101    0.27187
     1313.2     37.242     99.731     2.3767   -0.02031    0.27851
     1313.3     37.764     100.05     2.3657  -0.018947    0.28873
     1313.4     38.828      100.3     2.3648  -0.018253     0.3003
     1313.5     40.543     100.71     2.3741  -0.018971    0.30817
     1313.6     42.167     101.47     2.3892  -0.020895    0.30844
     1313.7     43.256     102.35     2.4063  -0.022222    0.29968
     1313.8     43.578     102.92     2.4227  -0.021664     0.2795
     1313.9     42.837     102.93     2.4348  -0.020055    0.24849
       1314     41.987     102.38     2.4415  -0.018991    0.22043
     1314.1     42.116     101.41     2.4434  -0.019172      0.213
     1314.2     42.819     100.34     2.4398  -0.020059     0.2296
     1314.3     43.474     99.533      2.431  -0.020281    0.25465
     1314.4     43.884     99.228     2.4201  -0.018359    0.27162
     1314.5     43.861     99.309     2.4111  -0.014341    0.27986
     1314.6     43.637     99.589     2.4064  -0.010258    0.28421
     1314.7     43.668     99.948     2.4065  -0.008616    0.28664
     1314.8     43.897     100.26     2.4104  -0.010311    0.28864
     1314.9     43.873     100.47     2.4154   -0.01483    0.28892
       1315     43.033     100.63     2.4194  -0.019975    0.28618
     1315.1     41.054      100.7     2.4234  -0.023263    0.28532
     1315.2     39.019      100.7     2.4279  -0.023992    0.28714
     1315.3     38.473     100.67     2.4313  -0.023354    0.28211
     1315.4     39.162     100.74     2.4329  -0.022622    0.26019
