~Version ---------------------------------------------------
VERS.     2.0 : CWLS log ASCII Standard -VERSION 2.0
WRAP.      NO : ONE LINE PER DEPTH STEP
~Well ------------------------------------------------------
STRT.M                           458.4 : First Index Value
STOP.M                       2563.4002 : Last Index Value
STEP.M             0.10000000000002274 : Frame Spacing
NULL.                          -999.25 : Absent Value
WELL.                           P05-05 : Well Name
FLD .     FINDER_composites_22-02-2005 : Field Name
CNTY.                                  : County
STAT.                                  : State
CTRY.                                  : Country
LOC .                                  : Location
API .                                  : API Number
DATE.                                  : Date
COMP.                              MOB : Company Name
SRVC.                                  : Service Company
~Curves ----------------------------------------------------
DEPT.M         : 
GR  .GAPI      : 
DT  .US/F      : 
RHOB.G/C3      : 
DRHO.G/C3      : 
NPHI.V/V       : 
~Params ----------------------------------------------------
TDD .M            2575.0 : Total Depth (Driller)
UBID.               7552 : Unique Borehole Id
PDAT.     Mean Sea Level : Permanent Datum
EPD .M               0.0 : Elevation of Permanent Datum (PDAT) above Mean Sea Level
LMF .                    : Logging Measured From (Name of Logging Elevation Reference)
APD .M              36.4 : Elevation of Depth Reference (LMF) Above Permanent Datum
~Other -----------------------------------------------------
composite_curve_qc
~ASCII -----------------------------------------------------
# ...
     2556.7     78.907     67.809     2.4978   -0.00943    0.15316
     2556.8     81.202     67.759      2.498  -0.009136    0.14902
     2556.9     81.981     67.967     2.4997  -0.010533    0.14468
       2557     81.249     68.329      2.504  -0.012548    0.14081
     2557.1     79.655     68.725     2.5105  -0.014526     0.1375
     2557.2     77.498     69.111     2.5181  -0.016272    0.13432
     2557.3      75.25       69.4     2.5258  -0.017758     0.1315
     2557.4     73.505     69.397     2.5323  -0.018961    0.12918
     2557.5      72.56     69.013     2.5363  -0.019651    0.12642
     2557.6     72.553     68.459     2.5403   -0.01956    0.12216
     2557.7     73.189     67.959     2.5467  -0.019116     0.1165
     2557.8     73.728     67.533     2.5544  -0.018835    0.11059
     2557.9      73.79     67.247     2.5607  -0.018393    0.10651
       2558     73.384     67.035     2.5635  -0.017224    0.10518
     2558.1     72.425     66.573     2.5622  -0.014988    0.10574
     2558.2     71.066     65.807     2.5585  -0.011697    0.10652
     2558.3      69.99     64.968     2.5551  -0.008147    0.10609
     2558.4     69.954     64.257     2.5534  -0.005466    0.10361
     2558.5     70.035     63.686     2.5534  -0.004295   0.099728
     2558.6     68.729     63.237      2.554  -0.004435    0.09543
     2558.7     65.566     63.048     2.5551  -0.005231    0.09096
     2558.8      61.08      63.14     2.5574  -0.005803   0.086622
     2558.9     55.643     63.367      2.563  -0.005368   0.083626
       2559     49.885     63.491     2.5735  -0.003824   0.084707
     2559.1     45.109     63.426     2.5883  -0.002088   0.091062
     2559.2     42.558     63.201     2.6067  -0.001486    0.10224
     2559.3     42.468     62.851     2.6262  -0.002927    0.11564
     2559.4     44.698     62.565     2.6434  -0.006273    0.12845
     2559.5      49.91     62.491     2.6547   -0.01074    0.13876
     2559.6      58.12     62.341     2.6587  -0.014849    0.14417
     2559.7     68.689     62.038     2.6567  -0.017055    0.14447
     2559.8     80.111      61.95     2.6507   -0.01696    0.14115
     2559.9     90.734     62.102     2.6425  -0.016233    0.13562
       2560      99.93     62.305     2.6347  -0.016224    0.12872
     2560.1     106.96     62.563     2.6309   -0.01729    0.12134
     2560.2     111.23     63.132     2.6325   -0.01969    0.11477
     2560.3     112.95     63.785     2.6386  -0.022619    0.10933
     2560.4     112.37     63.511     2.6474  -0.023827    0.10428
     2560.5     109.53     62.537     2.6558  -0.022445   0.098766
     2560.6     105.46       61.9     2.6607  -0.019213   0.093403
     2560.7     102.07     61.437     2.6632  -0.015393    0.08996
     2560.8     100.34     60.699     2.6654  -0.012356   0.089648
     2560.9       99.4     59.612     2.6692  -0.010795   0.091675
       2561     97.375      58.92      2.675  -0.010427   0.094032
     2561.1     93.938     58.853     2.6809  -0.010838   0.094674
     2561.2     90.712     58.937     2.6842  -0.011783   0.093779
     2561.3     88.354     59.063     2.6844   -0.01297   0.094434
     2561.4     87.703     59.203     2.6819  -0.014507   0.098821
     2561.5     88.837     59.413      2.678  -0.016401    0.10595
     2561.6     90.345     59.682     2.6737  -0.018243    0.11554
     2561.7     91.785     59.906     2.6707  -0.019738     0.1257
     2561.8     94.759     60.007     2.6698  -0.021021    0.13532
     2561.9     99.388     60.089      2.672  -0.022091    0.14588
       2562     104.78     60.313     2.6749  -0.023346    0.15693
     2562.1     109.81     60.749      2.673  -0.025146     0.1647
     2562.2     113.67     61.352     2.6681   -0.02645    0.16524
     2562.3     115.74     61.994     2.6634  -0.026111    0.15801
     2562.4     116.63     62.564     2.6591  -0.024437    0.14913
     2562.5     116.89       62.8     2.6575  -0.022193    0.14495
     2562.6     116.27     62.707     2.6614   -0.02019     0.1488
     2562.7     113.81     62.692     2.6688  -0.019038    0.15659
     2562.8     111.99     62.846     2.6755  -0.019787    0.16212
     2562.9     113.16         63     2.6777   -0.02215    0.15944
       2563     114.86     63.074     2.6775  -0.024105    0.14854
     2563.1     116.54     63.094     2.6746  -0.024946    0.13288
     2563.2     117.93     63.017     2.6692  -0.024894    0.11946
     2563.3     116.31      62.59      2.665  -0.023195    0.11389
     2563.4     111.89     61.836     2.6644  -0.019646    0.11577
