~Version ---------------------------------------------------
VERS.     2.0 : CWLS log ASCII Standard -VERSION 2.0
WRAP.      NO : ONE LINE PER DEPTH STEP
~Well ------------------------------------------------------
STRT.M                       3986.9004 : First Index Value
STOP.M                       3374.9004 : Last Index Value
STEP.M            -0.09999999999990905 : Frame Spacing
NULL.                          -999.25 : Absent Value
WELL.                        D12-03-S1 : Well Name
FLD .     FINDER_composites_22-02-2005 : Field Name
CNTY.                                  : County
STAT.                                  : State
CTRY.                                  : Country
LOC .                                  : Location
API .                                  : API Number
DATE.                                  : Date
COMP.                              PEN : Company Name
SRVC.                                  : Service Company
~Curves ----------------------------------------------------
DEPT.M         : 
GR  .GAPI      : 
DT  .US/F      : 
RHOB.G/C3      : 
DRHO.G/C3      : 
NPHI.V/V       : 
~Params ----------------------------------------------------
TDL .M            3999.0 : Total Depth (Logger)
TDD .M            3999.0 : Total Depth (Driller)
UBID.               7657 : Unique Borehole Id
PDAT.     Mean Sea Level : Permanent Datum
EPD .M               0.0 : Elevation of Permanent Datum (PDAT) above Mean Sea Level
LMF .       Rotary Table : Logging Measured From (Name of Logging Elevation Reference)
APD .M              34.2 : Elevation of Depth Reference (LMF) Above Permanent Datum
~Other -----------------------------------------------------
~ASCII -----------------------------------------------------
# ...
     3830.9      46.09      72.86     2.5249   0.000422    0.17888
     3830.8     49.922      72.29     2.5211   0.002391    0.18118
     3830.7     53.139     71.745     2.5134   0.007745    0.18376
     3830.6     54.872     71.318     2.5086   0.015255    0.18368
     3830.5     55.256     71.101     2.5134    0.02414    0.18189
     3830.4     54.809     71.049      2.527    0.03349    0.18137
     3830.3     53.938         71     2.5429   0.043997    0.18357
     3830.2     53.082     70.907     2.5546    0.05622     0.1871
     3830.1      52.66     70.984     2.5586   0.068576    0.18956
       3830     52.059     71.374     2.5511   0.074335    0.18807
     3829.9     50.489     71.909     2.5315   0.067489    0.18148
     3829.8      48.85     72.349     2.5079    0.04876    0.17142
     3829.7       47.8     72.484     2.4897   0.027228    0.16173
     3829.6     46.887     72.273     2.4786   0.012495    0.15543
     3829.5     46.606     71.879     2.4715   0.006996    0.15327
     3829.4     46.604     71.669     2.4628   0.007229    0.15491
     3829.3     45.458     71.899     2.4485   0.008473    0.15886
     3829.2     42.894     72.501     2.4322   0.007867    0.16096
     3829.1     39.753     73.236     2.4191   0.005368    0.15934
       3829     36.651     73.962     2.4097    0.00228    0.15574
     3828.9     33.988     74.656     2.4064   0.000443    0.15125
     3828.8     32.103     75.194     2.4096   0.000797    0.14783
     3828.7      31.15       75.4     2.4167   0.003218     0.1482
     3828.6     30.552     75.335     2.4238   0.005575    0.15168
     3828.5      30.09     75.157     2.4287   0.006783    0.15582
     3828.4     30.251      74.91      2.431   0.007698    0.15953
     3828.3     31.397      74.89     2.4325   0.011201    0.16133
     3828.2     32.914     75.216     2.4339   0.017273     0.1602
     3828.1     33.682     75.726     2.4345   0.022791     0.1557
       3828     33.766     76.243     2.4365   0.025299    0.14991
     3827.9     33.187     76.561     2.4404   0.023851    0.14502
     3827.8     30.969     76.359     2.4417    0.01726    0.14205
     3827.7     29.352     75.746     2.4412   0.010354    0.14255
     3827.6      29.87     75.023     2.4408   0.007167    0.14655
     3827.5     30.895     74.368     2.4373   0.007088    0.15229
     3827.4     31.684     73.732     2.4322   0.008703    0.15694
     3827.3     32.186     73.162     2.4296   0.011224    0.15902
     3827.2     31.289      72.99     2.4303   0.014112    0.15947
     3827.1     29.747     73.167     2.4337   0.016673    0.15787
       3827     29.215     73.394      2.438   0.018501    0.15387
     3826.9     29.798     73.607     2.4412   0.020444    0.14957
     3826.8     31.062     73.821     2.4424    0.02237     0.1458
     3826.7     32.512     73.986     2.4418    0.02308    0.14236
     3826.6      33.37     74.007     2.4396   0.021316     0.1401
     3826.5     33.427     73.811     2.4369    0.01666    0.13865
     3826.4     33.073     73.431     2.4359   0.010527    0.13691
     3826.3     32.177     72.896     2.4415   0.004704     0.1363
     3826.2     31.319     72.252     2.4521   0.000965    0.13771
     3826.1     31.613      71.59     2.4586  -0.000395    0.13973
       3826     32.689      71.17     2.4599   0.001072     0.1424
     3825.9     33.913     71.284     2.4566    0.00474    0.14562
     3825.8     35.336     71.858     2.4478   0.008188    0.14834
     3825.7     35.325     72.819      2.436   0.010113    0.15187
     3825.6     33.124     74.045     2.4255    0.00982    0.15743
     3825.5     31.448     75.425     2.4168   0.007879    0.16389
     3825.4     30.397     76.481     2.4079   0.005431    0.16868
     3825.3     29.155     76.815     2.3989   0.003864    0.16971
     3825.2     28.991     77.055     2.3936   0.003303    0.16908
     3825.1     28.992     77.493     2.3914   0.003311    0.16695
       3825     27.496      77.98     2.3893   0.003035    0.16357
     3824.9     26.143     78.263     2.3888   0.001882    0.16183
     3824.8     25.285     78.378     2.3896   0.000113    0.16241
     3824.7     23.963     78.578       2.39  -0.001141    0.16391
     3824.6     23.138     78.793     2.3913  -0.001101    0.16702
     3824.5     23.237     78.841     2.3941   0.000483    0.17108
     3824.4     23.271      78.64     2.3965   0.002966     0.1732
     3824.3     23.147     78.295     2.3973   0.005191    0.17305
     3824.2     23.207     77.945     2.3969   0.006436    0.17131
     3824.1      23.43     77.661     2.3962   0.006793    0.16867
       3824     23.608     77.461     2.3951   0.006261    0.16669
     3823.9     23.713     77.384     2.3938   0.004821    0.16638
     3823.8     23.977     77.451      2.394   0.002875    0.16704
     3823.7     24.344     77.528     2.3983   0.000963    0.16788
     3823.6     24.747      77.46     2.4107  -0.000653    0.16981
     3823.5     25.583     77.184     2.4355  -0.001957    0.17493
     3823.4     27.644     76.539     2.4721  -0.002761    0.18281
     3823.3     32.462     75.384     2.5164  -0.002402    0.19224
     3823.2     41.574     74.017     2.5561  -0.000294    0.20278
     3823.1     55.145     72.784      2.575   0.002724    0.21204
       3823     71.495     71.812     2.5638   0.005352    0.21729
     3822.9     85.807     71.276     2.5305   0.007264    0.21893
     3822.8      93.07     71.482     2.4903   0.007933    0.21759
     3822.7     90.738      72.63     2.4537   0.007162    0.21214
     3822.6     80.123     74.212     2.4289    0.00745    0.20313
     3822.5     65.791     75.449     2.4201   0.011975     0.1926
     3822.4     52.279     76.134     2.4285   0.022043    0.18289
     3822.3     42.552     76.752      2.449   0.035679    0.17549
     3822.2     37.207     77.494     2.4726   0.046425    0.17074
     3822.1     36.195     77.788     2.4915   0.047426    0.16896
       3822     37.528     77.611     2.5005   0.038868    0.16937
     3821.9     39.518     77.272        2.5   0.026968    0.17096
     3821.8      41.93     76.803     2.4916   0.016923    0.17407
     3821.7     43.382     76.284     2.4784   0.013275    0.17947
     3821.6     42.964     75.885     2.4663    0.01832    0.18645
     3821.5     41.398     75.756     2.4617   0.030594    0.19215
     3821.4     39.742      75.72      2.463    0.04117    0.19489
     3821.3     39.326     75.507     2.4684   0.042533    0.19406
     3821.2     41.854     75.015     2.4817   0.035655    0.18964
     3821.1     48.103     74.113      2.502   0.025175    0.18437
       3821     57.581     72.823     2.5271   0.017786    0.18313
     3820.9     68.869     71.474     2.5585   0.022394    0.19029
     3820.8     80.238     70.359     2.5933   0.045292     0.2062
     3820.7     89.848     69.425     2.6179   0.086016    0.22637
     3820.6     97.042     68.472     2.6205    0.13866    0.24386
     3820.5     102.97     67.851     2.6086    0.19437    0.25143
     3820.4     108.05     68.056     2.5895    0.23683    0.24507
     3820.3     110.85     68.819     2.5569    0.24669    0.22716
     3820.2     109.98     69.417     2.5191    0.21857    0.20656
     3820.1     104.14     69.738     2.4931    0.16245    0.19027
       3820     93.159      70.28     2.4856   0.098805    0.17912
     3819.9     79.968     70.682     2.4999   0.048759    0.17278
     3819.8     68.552      70.34     2.5301   0.020315    0.17034
     3819.7     61.547     69.573     2.5576   0.010113    0.16937
     3819.6     59.003     68.866     2.5738   0.016779     0.1692
     3819.5     59.245     68.406     2.5809   0.040243    0.16948
     3819.4     60.184     68.264     2.5797   0.072747     0.1683
     3819.3     59.546     68.597     2.5709    0.10294    0.16412
     3819.2     56.341     69.255     2.5559    0.12175    0.15658
     3819.1     51.598     69.719     2.5374    0.12583    0.14654
       3819     46.165      69.83     2.5227    0.11805    0.13613
