~Version ---------------------------------------------------
VERS.     2.0 : CWLS log ASCII Standard -VERSION 2.0
WRAP.      NO : ONE LINE PER DEPTH STEP
~Well ------------------------------------------------------
STRT.M                       3986.9004 : First Index Value
STOP.M                       3374.9004 : Last Index Value
STEP.M            -0.09999999999990905 : Frame Spacing
NULL.                          -999.25 : Absent Value
WELL.                        D12-03-S1 : Well Name
FLD .     FINDER_composites_22-02-2005 : Field Name
CNTY.                                  : County
STAT.                                  : State
CTRY.                                  : Country
LOC .                                  : Location
API .                                  : API Number
DATE.                                  : Date
COMP.                              PEN : Company Name
SRVC.                                  : Service Company
~Curves ----------------------------------------------------
DEPT.M         : 
GR  .GAPI      : 
DT  .US/F      : 
RHOB.G/C3      : 
DRHO.G/C3      : 
NPHI.V/V       : 
~Params ----------------------------------------------------
TDL .M            3999.0 : Total Depth (Logger)
TDD .M            3999.0 : Total Depth (Driller)
UBID.               7657 : Unique Borehole Id
PDAT.     Mean Sea Level : Permanent Datum
EPD .M               0.0 : Elevation of Permanent Datum (PDAT) above Mean Sea Level
LMF .       Rotary Table : Logging Measured From (Name of Logging Elevation Reference)
APD .M              34.2 : Elevation of Depth Reference (LMF) Above Permanent Datum
~Other -----------------------------------------------------
~ASCII -----------------------------------------------------
# ...
       3392     84.604     64.502     2.5652   0.012311   0.089816
     3391.9     85.476     64.694     2.5653   0.013414    0.08837
     3391.8     85.529     65.096     2.5649   0.013973   0.087098
     3391.7      84.96     65.608     2.5637   0.013503   0.086518
     3391.6     85.824     66.151     2.5615   0.012153   0.087299
     3391.5     87.686     66.627     2.5581   0.010555   0.090233
     3391.4     88.673     66.886     2.5534   0.009424   0.096037
     3391.3     89.137     66.856      2.548    0.00911    0.10391
     3391.2     89.832     66.662     2.5433    0.00921    0.11173
     3391.1     90.963     66.414      2.541   0.009069     0.1167
       3391     92.883     66.041     2.5419   0.008429    0.11699
     3390.9     95.124     65.579     2.5458   0.007554    0.11253
     3390.8     96.106     65.265      2.552   0.006887    0.10461
     3390.7     94.571     65.207     2.5587    0.00661   0.096086
     3390.6     90.955     65.366     2.5641   0.006689   0.089842
     3390.5     87.058     65.648     2.5671   0.006984   0.087603
     3390.4     84.112      65.94     2.5678   0.007189   0.088904
     3390.3     82.995      66.15     2.5668   0.007305   0.092295
     3390.2     83.741     66.257      2.565    0.00769   0.096441
     3390.1     83.946     66.348     2.5634   0.008528   0.099931
       3390     82.221     66.398     2.5624   0.010151    0.10209
     3389.9     80.026     66.279     2.5623   0.013146      0.103
     3389.8     78.172     66.108     2.5627   0.017477    0.10323
     3389.7     77.077     66.033      2.563   0.022189    0.10354
     3389.6     77.423     65.953      2.563   0.026134    0.10435
     3389.5      78.58     65.804     2.5625   0.028014    0.10486
     3389.4     79.207     65.638     2.5604   0.026677    0.10364
     3389.3     79.124     65.529     2.5562   0.022069    0.10022
     3389.2     79.277     65.495     2.5513   0.016469   0.095492
     3389.1      80.24     65.528     2.5482   0.012475   0.090938
       3389     81.094     65.623      2.548   0.010912   0.087836
     3388.9     81.136     65.692     2.5508   0.011512   0.087019
     3388.8     80.892     65.665     2.5556     0.0135   0.088098
     3388.7     81.315     65.574     2.5599   0.015669   0.089584
     3388.6      82.64     65.433     2.5612   0.016706   0.090211
     3388.5     84.369     65.245     2.5585   0.016115   0.089644
     3388.4      85.76     65.063      2.553   0.014525   0.088074
     3388.3     85.698     64.901      2.547   0.013048   0.086124
     3388.2     84.409     64.763     2.5422   0.012428   0.084402
     3388.1     83.842     64.687      2.539   0.012754   0.083121
       3388     84.791     64.698     2.5367   0.013708   0.082028
     3387.9     86.266     64.786     2.5347   0.014645   0.080982
     3387.8     87.163     64.913     2.5321     0.0148   0.080164
     3387.7     86.915     65.016     2.5291   0.013849   0.079613
     3387.6     85.871      65.07     2.5264   0.012114   0.079391
     3387.5     84.962     65.109      2.525   0.010286   0.079624
     3387.4     84.453     65.099     2.5248   0.008937    0.07974
     3387.3     83.828     64.984     2.5252   0.008298   0.079068
     3387.2     82.504     64.792      2.525   0.008227   0.077546
     3387.1     80.335     64.638     2.5233   0.008262   0.074886
       3387     78.129     64.613     2.5201   0.008072     0.0711
     3386.9     77.205     64.727     2.5167   0.007726   0.066847
     3386.8     78.638     64.946     2.5147    0.00776   0.063314
     3386.7     81.772     65.195     2.5151   0.008372   0.061741
     3386.6      84.76     65.385     2.5172   0.009183   0.063131
     3386.5     86.072     65.376       2.52   0.010035   0.067943
     3386.4     85.176     65.189     2.5228   0.011006   0.075042
     3386.3     81.936      65.06     2.5247   0.011983   0.081789
     3386.2     77.619     65.057     2.5254   0.012844   0.085288
     3386.1     73.442     65.076     2.5253   0.013552   0.084786
       3386     69.461     65.042     2.5253   0.013921   0.081316
     3385.9     66.748     64.944      2.526   0.013704   0.076961
     3385.8     66.106     64.813     2.5271   0.013002    0.07332
     3385.7     66.906     64.732     2.5277   0.012457   0.071733
     3385.6     69.059     64.717     2.5281    0.01294   0.072156
     3385.5     72.345     64.754     2.5291   0.014843    0.07364
     3385.4     74.931     64.921     2.5312   0.018255   0.075205
     3385.3      76.51      65.26     2.5333   0.021635   0.076392
     3385.2      77.95     65.716     2.5335   0.023057   0.077185
     3385.1     79.507     66.241     2.5302   0.021349   0.078041
       3385     80.963     66.775     2.5243   0.017233   0.080201
     3384.9     82.091      67.22     2.5181   0.012537    0.08439
     3384.8     83.019     67.468     2.5138   0.008828   0.090527
     3384.7     83.543     67.496     2.5116   0.006325   0.096756
     3384.6     83.275     67.354      2.511   0.004537    0.10078
     3384.5     82.132     67.039     2.5111   0.003366      0.101
     3384.4     80.922     66.576     2.5122   0.003053   0.097755
     3384.3     80.615     66.039     2.5141   0.003604   0.092949
     3384.2     80.969     65.556     2.5171   0.004961   0.089029
     3384.1      82.04     65.301     2.5208   0.006794   0.087169
       3384     84.596     65.338     2.5252   0.008697   0.086284
     3383.9     85.727     65.512     2.5294   0.009866   0.085234
     3383.8     83.712     65.609     2.5321   0.009921   0.083795
     3383.7     81.223     65.582     2.5328   0.009501   0.082509
     3383.6     79.252     65.465     2.5315   0.008811   0.082216
     3383.5     77.845     65.372     2.5288   0.007807   0.083292
     3383.4     77.897     65.417     2.5257    0.00645    0.08539
     3383.3     79.099     65.557     2.5234   0.004738   0.088093
     3383.2     80.164     65.615     2.5224   0.002907   0.090794
     3383.1     81.231     65.483     2.5222   0.001335   0.093118
       3383     82.793     65.271     2.5226    0.00069   0.094122
     3382.9     84.755     65.207     2.5232   0.001272   0.093234
     3382.8     86.153     65.238     2.5245   0.002664   0.091122
     3382.7     85.695     65.306      2.527   0.004409   0.088379
     3382.6     83.396     65.424     2.5301   0.006044   0.085676
     3382.5     81.351     65.579     2.5335    0.00747   0.083861
     3382.4     80.893     65.752     2.5364   0.008773   0.083472
     3382.3     81.229     65.926     2.5383   0.010251   0.084128
     3382.2      81.97     66.037     2.5402   0.012219   0.085537
     3382.1     82.342     66.021     2.5431   0.015072   0.087442
       3382     81.127     65.894     2.5475   0.018911   0.089351
     3381.9     79.531     65.724     2.5515   0.022646   0.090657
     3381.8      78.55      65.57     2.5529   0.025209   0.090812
     3381.7     76.751      65.45     2.5507   0.026501   0.089606
     3381.6      74.41     65.357     2.5463   0.026722   0.087185
     3381.5     72.679     65.281     2.5414   0.026176   0.083682
     3381.4     71.108     65.225     2.5381   0.025493    0.07971
     3381.3     70.666     65.196     2.5364   0.024235   0.076601
     3381.2     72.683     65.152     2.5344   0.021234    0.07557
     3381.1     74.869     65.005     2.5309   0.016772   0.076175
       3381     75.658     64.757     2.5256   0.011805   0.076905
     3380.9     75.252     64.511     2.5187   0.007198   0.076149
     3380.8     73.114     64.336     2.5113   0.003502   0.073346
     3380.7     70.208     64.278     2.5051   0.000971    0.06925
     3380.6     69.048     64.404     2.5015   -1.3e-05   0.065397
     3380.5     69.814     64.698     2.5013   0.000461   0.063337
     3380.4     71.304     65.059      2.504   0.001992   0.063296
     3380.3     72.958     65.364     2.5084   0.004116   0.064569
     3380.2     74.091       65.6     2.5129   0.006159   0.066268
     3380.1     74.688     65.784     2.5167   0.007749   0.068149
