~Version ---------------------------------------------------
VERS.     2.0 : CWLS log ASCII Standard -VERSION 2.0
WRAP.      NO : ONE LINE PER DEPTH STEP
~Well ------------------------------------------------------
STRT.M                       3986.9004 : First Index Value
STOP.M                       3374.9004 : Last Index Value
STEP.M            -0.09999999999990905 : Frame Spacing
NULL.                          -999.25 : Absent Value
WELL.                        D12-03-S1 : Well Name
FLD .     FINDER_composites_22-02-2005 : Field Name
CNTY.                                  : County
STAT.                                  : State
CTRY.                                  : Country
LOC .                                  : Location
API .                                  : API Number
DATE.                                  : Date
COMP.                              PEN : Company Name
SRVC.                                  : Service Company
~Curves ----------------------------------------------------
DEPT.M         : 
GR  .GAPI      : 
DT  .US/F      : 
RHOB.G/C3      : 
DRHO.G/C3      : 
NPHI.V/V       : 
~Params ----------------------------------------------------
TDL .M            3999.0 : Total Depth (Logger)
TDD .M            3999.0 : Total Depth (Driller)
UBID.               7657 : Unique Borehole Id
PDAT.     Mean Sea Level : Permanent Datum
EPD .M               0.0 : Elevation of Permanent Datum (PDAT) above Mean Sea Level
LMF .       Rotary Table : Logging Measured From (Name of Logging Elevation Reference)
APD .M              34.2 : Elevation of Depth Reference (LMF) Above Permanent Datum
~Other -----------------------------------------------------
~ASCII -----------------------------------------------------
# ...
       3656     16.925     75.499     2.4466   0.005258    0.16276
     3655.9     17.373     75.628     2.4555   0.006761    0.15817
     3655.8     18.608      75.67     2.4586   0.006904    0.15433
     3655.7     20.222     75.526     2.4563   0.006101    0.15117
     3655.6      21.41     75.221     2.4503   0.005093    0.14904
     3655.5     21.883     74.842      2.441   0.004223    0.14829
     3655.4     22.098       74.6     2.4284   0.003397    0.14872
     3655.3      22.11     74.779     2.4135   0.002225    0.15015
     3655.2     21.912     75.541     2.3977   0.000434    0.15282
     3655.1     22.014      76.68     2.3844  -0.001603    0.15698
       3655     22.177     77.939     2.3771  -0.003203     0.1626
     3654.9     21.853     79.161     2.3783   -0.00373    0.16929
     3654.8     21.427     80.101     2.3876  -0.002965    0.17555
     3654.7     21.324     80.522     2.4034  -0.001367    0.18026
     3654.6     21.708      80.29     2.4248    0.00041    0.18287
     3654.5      22.82      79.62     2.4507   0.002036    0.18376
     3654.4     24.732     78.578     2.4809   0.003823     0.1844
     3654.3     27.709     76.977     2.5149   0.006275    0.18587
     3654.2     32.447      75.03      2.548   0.009326    0.18779
     3654.1     39.622      72.89      2.576   0.012351    0.18954
       3654     49.239     70.614     2.5953   0.014334    0.19136
     3653.9     60.275     68.512     2.6057   0.014651    0.19372
     3653.8     70.348     66.932     2.6092   0.013541    0.19746
     3653.7     77.002     66.024     2.6064    0.01183    0.20311
     3653.6     80.886     65.593     2.5994     0.0104    0.21016
     3653.5     82.841     65.505     2.5896   0.009517    0.21765
     3653.4     82.203     65.802     2.5783   0.008862     0.2251
     3653.3     80.274     66.334     2.5661   0.008054    0.23257
     3653.2     78.143     66.961     2.5526   0.006994    0.23983
     3653.1     74.919     67.736     2.5366    0.00566    0.24605
       3653     70.249     68.706     2.5181   0.003929    0.24984
     3652.9     64.904     69.724     2.5006   0.002035    0.24957
     3652.8     59.539     70.548     2.4889   0.000652    0.24481
     3652.7     54.278      71.12     2.4875   0.000164    0.23714
     3652.6     49.521     71.443     2.4983   0.000543    0.22903
     3652.5     46.207     71.358       2.52   0.001687    0.22233
     3652.4      44.18     70.799     2.5465   0.003303    0.21816
     3652.3     43.208     69.928     2.5709   0.004904     0.2167
     3652.2     44.275     69.049     2.5868   0.005854    0.21752
     3652.1     48.069     68.252     2.5902    0.00584    0.22043
       3652     53.905     67.569     2.5811   0.004937    0.22566
     3651.9     59.352     67.275     2.5646   0.003506    0.23216
     3651.8     61.682     67.443     2.5495   0.002231    0.23735
     3651.7      60.05     67.815     2.5427   0.001825    0.23854
     3651.6     56.078     68.042     2.5475   0.002501    0.23495
     3651.5     52.334     67.875     2.5617   0.003571    0.22877
     3651.4     50.865     67.234      2.581   0.004236    0.22412
     3651.3     52.615     66.233        2.6   0.004438    0.22462
     3651.2     57.087     65.178     2.6152   0.004494     0.2322
     3651.1     63.004     64.338      2.626   0.004676    0.24549
       3651     69.248     63.754     2.6343   0.005023    0.26035
     3650.9     75.142     63.459      2.643    0.00519    0.27334
     3650.8     79.962     63.483     2.6536   0.004756    0.28264
     3650.7     83.181     63.667     2.6659   0.003707    0.28814
     3650.6      84.37      63.69     2.6802   0.002712    0.29028
     3650.5     84.069     63.427     2.6947   0.002312    0.28952
     3650.4     83.906     63.064     2.7064   0.002303    0.28675
     3650.3     84.222     62.824     2.7121   0.002554    0.28383
     3650.2     84.936     62.899       2.71   0.003134    0.28268
     3650.1     86.791     63.538     2.6993   0.004053    0.28421
       3650     86.931     64.833     2.6755   0.005279    0.28772
     3649.9      82.56     66.545     2.6373   0.006672    0.29057
     3649.8     73.917     68.453     2.5862   0.008102    0.28907
     3649.7     62.452     70.324     2.5309   0.009641    0.28035
     3649.6     49.662     72.043     2.4787   0.012068    0.26495
     3649.5     38.766     73.342     2.4384   0.016931    0.24708
     3649.4     31.182     74.127     2.4153   0.025312    0.23256
     3649.3     25.855      74.59     2.4059   0.036625    0.22389
     3649.2     22.727     74.861     2.4046   0.047611    0.22144
     3649.1     20.931     74.972     2.4062   0.054012    0.22297
       3649     19.271     74.973     2.4077   0.054386    0.22566
     3648.9     18.431      74.96     2.4089   0.048341    0.22778
     3648.8     18.261     74.992       2.41   0.037572    0.22803
     3648.7     17.956      75.07      2.411   0.024629    0.22589
     3648.6     18.294     75.223     2.4123   0.013479    0.22118
     3648.5     19.356     75.364     2.4142   0.005803    0.21438
     3648.4     20.377      75.41     2.4163   0.001392    0.20697
     3648.3     21.715     75.728     2.4168  -0.000259    0.20266
     3648.2     23.369     76.381     2.4136  -0.000323    0.20302
     3648.1     24.627     77.031     2.4063     -3e-05    0.20682
       3648     25.918     77.555     2.3953  -0.000211    0.21194
     3647.9     27.279     78.069     2.3836  -0.000621    0.21657
     3647.8     27.906     78.658     2.3751  -0.000467    0.21964
     3647.7     27.323     79.061     2.3726   0.000837    0.22362
     3647.6     25.759     79.095     2.3758      0.003    0.23042
     3647.5     23.877     78.927     2.3811   0.005107    0.23902
     3647.4     22.124      78.65      2.385   0.006486    0.24711
     3647.3     20.893     78.358     2.3848   0.006776    0.25174
     3647.2     20.303     78.168      2.381   0.006153    0.25187
     3647.1     20.139     78.251     2.3758   0.005319    0.24803
       3647     20.089     78.648     2.3718   0.004991    0.24215
     3646.9      20.06     79.146     2.3694   0.005064    0.23606
     3646.8     20.322      79.56     2.3687   0.005371    0.22932
     3646.7      21.07     79.748     2.3699   0.005817    0.22175
     3646.6     22.067     79.733     2.3719   0.006409    0.21394
     3646.5     23.175     79.664     2.3734     0.0073     0.2073
     3646.4     24.326      79.71     2.3735   0.008557    0.20278
     3646.3     25.221     79.706     2.3721   0.009952    0.20061
     3646.2     25.072     79.557     2.3693   0.010969    0.20086
     3646.1     23.534     79.394     2.3667   0.010897    0.20258
       3646     21.645     79.265     2.3657   0.009154     0.2053
     3645.9     20.376     79.149     2.3679   0.005842    0.20933
     3645.8     19.739     78.992     2.3739   0.002236    0.21502
     3645.7     19.768     78.843      2.383  -0.000461    0.22142
     3645.6     20.198     78.726     2.3935  -0.001438    0.22697
     3645.5     20.095     78.575     2.4033  -0.001004    0.23098
     3645.4      19.11     78.482     2.4106   -6.1e-05    0.23301
     3645.3     17.907     78.586     2.4143   0.000333    0.23325
     3645.2     17.727     78.836      2.416   -0.00041    0.23331
     3645.1     18.309     79.098     2.4179  -0.001977    0.23442
       3645     18.737     79.231     2.4215  -0.003498    0.23718
     3644.9     19.107     79.155      2.427  -0.004082    0.24115
     3644.8     19.367     78.913     2.4327  -0.003311    0.24482
     3644.7     19.326     78.682     2.4365  -0.001084    0.24636
     3644.6     19.662      78.69     2.4374   0.002279    0.24466
     3644.5     20.552      78.82     2.4349   0.005932    0.23931
     3644.4      21.31     78.715     2.4289   0.008984    0.23054
     3644.3     21.502     78.357     2.4213   0.010855    0.22082
     3644.2     21.236      77.87     2.4142   0.010953    0.21297
     3644.1     20.899     77.252     2.4092   0.008766    0.20824
