~Version ---------------------------------------------------
VERS.     2.0 : CWLS log ASCII Standard -VERSION 2.0
WRAP.      NO : ONE LINE PER DEPTH STEP
~Well ------------------------------------------------------
STRT.M                       3986.9004 : First Index Value
STOP.M                       3374.9004 : Last Index Value
STEP.M            -0.09999999999990905 : Frame Spacing
NULL.                          -999.25 : Absent Value
WELL.                        D12-03-S1 : Well Name
FLD .     FINDER_composites_22-02-2005 : Field Name
CNTY.                                  : County
STAT.                                  : State
CTRY.                                  : Country
LOC .                                  : Location
API .                                  : API Number
DATE.                                  : Date
COMP.                              PEN : Company Name
SRVC.                                  : Service Company
~Curves ----------------------------------------------------
DEPT.M         : 
GR  .GAPI      : 
DT  .US/F      : 
RHOB.G/C3      : 
DRHO.G/C3      : 
NPHI.V/V       : 
~Params ----------------------------------------------------
TDL .M            3999.0 : Total Depth (Logger)
TDD .M            3999.0 : Total Depth (Driller)
UBID.               7657 : Unique Borehole Id
PDAT.     Mean Sea Level : Permanent Datum
EPD .M               0.0 : Elevation of Permanent Datum (PDAT) above Mean Sea Level
LMF .       Rotary Table : Logging Measured From (Name of Logging Elevation Reference)
APD .M              34.2 : Elevation of Depth Reference (LMF) Above Permanent Datum
~Other -----------------------------------------------------
~ASCII -----------------------------------------------------
# ...
     3950.9       41.4     69.867     2.5402   0.010401    0.16104
     3950.8     42.872     69.517     2.5469   0.008161    0.16913
     3950.7     44.792     69.246     2.5585      0.006     0.1754
     3950.6     48.578     69.051      2.571   0.004394    0.17645
     3950.5     54.529     68.739      2.581   0.003925    0.17214
     3950.4         61     68.197      2.585   0.004819    0.16356
     3950.3     65.273     67.639     2.5805   0.006637    0.15194
     3950.2     65.898     67.231     2.5694   0.009431    0.14227
     3950.1     62.754     67.002     2.5549    0.01335    0.13917
       3950     56.886     66.947     2.5368   0.017439    0.13975
     3949.9      50.63     67.107     2.5169   0.020893    0.14056
     3949.8     45.531     67.593      2.499   0.024131    0.14088
     3949.7     40.717      68.46      2.487   0.028808     0.1402
     3949.6      35.63     69.637     2.4845   0.037303    0.13837
     3949.5     31.164     70.947     2.4907   0.049486    0.13602
     3949.4     27.735     72.076     2.4967   0.059035    0.13467
     3949.3     25.684     72.808      2.498   0.061148    0.13407
     3949.2      25.12     73.134     2.4978   0.055903    0.13252
     3949.1     25.136     73.042     2.4951   0.042671    0.13086
       3949     25.097     72.577     2.4942   0.026098    0.12996
     3948.9     25.368     71.847     2.5036   0.014582    0.12882
     3948.8     26.038     70.935     2.5184   0.009154     0.1278
     3948.7     26.973     69.854     2.5304   0.006709    0.12765
     3948.6     28.061     68.597     2.5415   0.007242    0.12796
     3948.5     29.184     67.254     2.5523   0.009734    0.12819
     3948.4      30.58     66.051     2.5624   0.012358    0.12837
     3948.3       32.5     65.314     2.5693   0.013521    0.12881
     3948.2     34.397     65.066     2.5681   0.012566    0.12946
     3948.1     35.379     65.169     2.5577   0.010026    0.13052
       3948     35.093     65.663     2.5448    0.00679    0.13265
     3947.9     33.896     66.411     2.5367   0.004174    0.13531
     3947.8     32.684     67.172     2.5381   0.003361    0.13667
     3947.7     32.411     67.768     2.5497   0.004849    0.13552
     3947.6     33.417     68.158     2.5633   0.007474      0.133
     3947.5     35.129     68.342     2.5692   0.009744    0.13075
     3947.4     36.563     68.309     2.5656   0.011148     0.1291
     3947.3     37.188     68.155     2.5539    0.01124    0.12887
     3947.2     37.127     68.133     2.5367   0.009606    0.13003
     3947.1     36.687     68.471     2.5193   0.006754    0.13027
       3947     36.141     69.003     2.5046   0.003706    0.12895
     3946.9     35.537      69.43     2.4925   0.001725    0.12732
     3946.8      34.95     69.823     2.4827   0.001718    0.12587
     3946.7     34.781     70.401     2.4741    0.00306    0.12493
     3946.6     35.156     71.222     2.4663   0.004918    0.12497
     3946.5     35.496     72.109     2.4599   0.007326    0.12605
     3946.4     35.529     72.809     2.4561   0.008903    0.12813
     3946.3     35.169     73.224     2.4561    0.00866    0.13081
     3946.2     34.102     73.471     2.4604    0.00803    0.13321
     3946.1     32.878     73.666     2.4668   0.006746    0.13516
       3946     32.547     73.782     2.4735   0.004159    0.13658
     3945.9     33.398     73.708     2.4805   0.002179    0.13686
     3945.8     35.012     73.446     2.4868   0.001825    0.13603
     3945.7     36.725     73.052     2.4911   0.002597    0.13473
     3945.6     37.987     72.526     2.4941   0.004152    0.13327
     3945.5     38.585     72.034     2.4941   0.005656    0.13178
     3945.4     38.529     71.726     2.4902   0.006117    0.13071
     3945.3      37.83     71.531     2.4858   0.005321    0.13077
     3945.2     37.114     71.321     2.4833   0.004356    0.13191
     3945.1     36.756     71.096     2.4822   0.004194    0.13342
       3945     36.124     70.978     2.4809   0.004549    0.13482
     3944.9     35.881     70.949     2.4807   0.005244    0.13587
     3944.8      36.75     70.897     2.4826   0.005954    0.13648
     3944.7     37.696     70.783     2.4856   0.005445    0.13688
     3944.6     38.444     70.583     2.4913   0.003243    0.13747
     3944.5     39.391     70.302     2.5011   0.000308    0.13826
     3944.4     40.129     69.944     2.5145  -0.002186    0.13861
     3944.3     41.248     69.501     2.5306  -0.002883    0.13889
     3944.2     43.447     68.968     2.5486  -0.001358    0.14015
     3944.1     45.934      68.29     2.5693   0.002028    0.14366
       3944      48.54     67.506     2.5892   0.005455    0.15238
     3943.9     51.953     66.711     2.6051    0.00739    0.16757
     3943.8     57.351     65.967     2.6172   0.007959    0.18911
     3943.7     65.236      65.47     2.6273   0.010187    0.21246
     3943.6     75.276     65.332     2.6373    0.01691    0.23262
     3943.5      88.92     65.383     2.6497   0.031533    0.24331
     3943.4     104.06     65.365     2.6658   0.052792    0.24016
     3943.3     117.76     65.144     2.6866   0.077564    0.22446
     3943.2     125.33     64.774      2.708     0.1005     0.2013
     3943.1     123.84     64.235     2.7246     0.1161    0.17784
       3943     113.15     63.394      2.734    0.12199    0.15786
     3942.9     95.579     62.651     2.7355    0.11535    0.14682
     3942.8       76.6     62.408     2.7239   0.096518    0.14404
     3942.7      59.93     62.661     2.6902   0.066598     0.1436
     3942.6     49.432     63.244     2.6478    0.03821     0.1412
     3942.5      44.79     64.067     2.6109   0.020287    0.13562
     3942.4     43.574     65.189     2.5792   0.012037    0.12838
     3942.3     43.421     66.162     2.5566   0.009915    0.12392
     3942.2     42.699     66.636     2.5437   0.009933    0.12491
     3942.1     41.275     66.894     2.5322   0.010185    0.12934
       3942     39.331     67.159     2.5167   0.010364     0.1369
     3941.9     37.435      67.54     2.4978   0.010883    0.14871
     3941.8     37.052     68.149     2.4836   0.012267    0.16415
     3941.7     39.087     69.126     2.4789   0.014277    0.17521
     3941.6     43.383     70.386     2.4832   0.015757    0.17139
     3941.5      49.81     71.554     2.4926   0.015679    0.15484
     3941.4     56.413     72.007     2.5034   0.014567    0.12843
     3941.3     59.481     71.357     2.5114   0.014073   0.097572
     3941.2     57.584     70.008     2.5131   0.013159   0.076897
     3941.1     50.761     68.253     2.5076   0.010316   0.074522
       3941      41.67     66.353     2.4982   0.005738   0.085657
     3940.9     33.714     64.859      2.487   0.000498    0.10942
     3940.8     29.382     64.184     2.4767  -0.004177    0.14954
     3940.7     29.636     64.304     2.4736  -0.006663    0.19967
     3940.6     34.363      65.21     2.4844  -0.006471    0.25039
     3940.5     44.138     66.989      2.513  -0.003993     0.2908
     3940.4     58.132     69.164     2.5503  -0.000802    0.31439
     3940.3     75.703     71.238     2.5912   0.004323    0.32424
     3940.2     94.892     72.777     2.6281   0.012633    0.32516
     3940.1     112.22      73.88     2.6502   0.020658    0.32276
       3940     125.22     74.673     2.6618   0.026262    0.31837
     3939.9      131.4     74.994     2.6726   0.028017    0.31102
     3939.8     131.35     74.815     2.6811    0.02457    0.30163
     3939.7     127.04     74.288     2.6882   0.020278    0.29173
     3939.6     121.46     73.714     2.6989   0.022249    0.28411
     3939.5     118.25     73.285      2.708   0.026976    0.28171
     3939.4     118.63     73.037       2.71   0.029005    0.28141
     3939.3     121.08     72.919     2.7072   0.027415    0.27592
     3939.2     123.55     72.805     2.7046   0.022539     0.2664
     3939.1     124.26      72.47     2.7034   0.016028    0.25492
       3939     122.03     71.707     2.7018   0.010804    0.23951
