~Version ---------------------------------------------------
VERS.     2.0 : CWLS log ASCII Standard -VERSION 2.0
WRAP.      NO : ONE LINE PER DEPTH STEP
~Well ------------------------------------------------------
STRT.M                       3986.9004 : First Index Value
STOP.M                       3374.9004 : Last Index Value
STEP.M            -0.09999999999990905 : Frame Spacing
NULL.                          -999.25 : Absent Value
WELL.                        D12-03-S1 : Well Name
FLD .     FINDER_composites_22-02-2005 : Field Name
CNTY.                                  : County
STAT.                                  : State
CTRY.                                  : Country
LOC .                                  : Location
API .                                  : API Number
DATE.                                  : Date
COMP.                              PEN : Company Name
SRVC.                                  : Service Company
~Curves ----------------------------------------------------
DEPT.M         : 
GR  .GAPI      : 
DT  .US/F      : 
RHOB.G/C3      : 
DRHO.G/C3      : 
NPHI.V/V       : 
~Params ----------------------------------------------------
TDL .M            3999.0 : Total Depth (Logger)
TDD .M            3999.0 : Total Depth (Driller)
UBID.               7657 : Unique Borehole Id
PDAT.     Mean Sea Level : Permanent Datum
EPD .M               0.0 : Elevation of Permanent Datum (PDAT) above Mean Sea Level
LMF .       Rotary Table : Logging Measured From (Name of Logging Elevation Reference)
APD .M              34.2 : Elevation of Depth Reference (LMF) Above Permanent Datum
~Other -----------------------------------------------------
~ASCII -----------------------------------------------------
# ...
     3758.9     101.62     93.329      1.858  -0.024572    0.39939
     3758.8     98.718     94.463     1.9461   -0.02534    0.35091
     3758.7     98.988     92.645      2.108  -0.018881    0.31059
     3758.6     102.69     88.135     2.3165  -0.006593    0.28558
     3758.5     108.41     82.329     2.5042   0.006013    0.27297
     3758.4      114.5     76.784      2.607   0.012068    0.26486
     3758.3     119.23     72.456     2.6415   0.012311     0.2579
     3758.2     121.34     69.486     2.6556   0.011294    0.25192
     3758.1     120.24     67.759     2.6576   0.010173    0.24529
       3758     116.47     66.966     2.6563   0.009621    0.23948
     3757.9     111.53     66.572     2.6553   0.009353    0.23446
     3757.8     106.76     66.129     2.6529   0.008554    0.22623
     3757.7     102.35     65.662     2.6514   0.006761    0.21346
     3757.6     97.551     65.275     2.6538   0.004684    0.19727
     3757.5     92.004     64.729     2.6595    0.00349     0.1796
     3757.4     84.888     63.981     2.6676    0.00302     0.1633
     3757.3     76.397     63.128     2.6778   0.002493    0.15068
     3757.2     68.419     62.207     2.6892   0.001944    0.14312
     3757.1     61.288     61.263     2.6996    0.00159    0.13995
       3757     54.987     60.452     2.7064   0.001506    0.14114
     3756.9      50.34     59.946     2.7074   0.001723    0.14751
     3756.8     47.583     59.788     2.7013   0.002591    0.15997
     3756.7     47.663     60.041     2.6874   0.004371    0.17728
     3756.6     51.893      60.81     2.6665   0.006764    0.19582
     3756.5     59.771     62.084     2.6441   0.009058    0.21127
     3756.4     68.981     63.638     2.6274   0.010394    0.21958
     3756.3     77.199     65.155     2.6203    0.01041    0.21902
     3756.2     81.992     66.257     2.6258   0.009901    0.20958
     3756.1     81.959       66.6     2.6447   0.011076    0.19283
       3756     77.543     66.011      2.674   0.016035    0.17152
     3755.9     70.108     64.434     2.7029   0.024291    0.15023
     3755.8     61.028     62.404     2.7235   0.032707    0.13441
     3755.7     51.187     60.785     2.7363   0.038308     0.1271
     3755.6     42.813     59.911     2.7399   0.040169    0.12793
     3755.5      38.55     59.614     2.7329   0.039299    0.13684
     3755.4     39.927     59.718     2.7186   0.037387    0.15503
     3755.3     48.799     60.386     2.7013   0.037416     0.1815
     3755.2     64.301       61.6     2.6829   0.039747    0.21297
     3755.1     82.131     62.956     2.6645   0.041055    0.24509
       3755     98.709     64.315     2.6501   0.038844    0.26918
     3754.9     111.68     65.673     2.6441   0.033455    0.28066
     3754.8      117.6     66.757     2.6493    0.02681    0.28044
     3754.7     117.68     67.186     2.6652   0.019144    0.27279
     3754.6     114.85     66.979     2.6896    0.01348    0.26287
     3754.5     108.58     66.509     2.7246   0.017355     0.2535
     3754.4     102.07     65.858     2.7589   0.031689    0.24666
     3754.3      98.84     65.036     2.7791   0.048975    0.24281
     3754.2     98.048     64.226      2.783    0.05928    0.24008
     3754.1     99.348     63.714     2.7745    0.06029    0.24079
       3754     102.51     63.679     2.7611   0.057428      0.248
     3753.9     105.51     64.167     2.7524   0.060884     0.2637
     3753.8     106.91     65.746     2.7424   0.075135    0.29136
     3753.7      106.7     68.848     2.7085   0.093638    0.33084
     3753.6     104.46     74.174     2.5878   0.097756    0.38181
     3753.5     100.09     80.706     2.3862   0.084763     0.4345
     3753.4     94.456     86.779     2.1738   0.068607     0.4762
     3753.3     87.761      92.98      2.002   0.059443    0.48884
     3753.2     81.542     98.259     1.9027   0.057268    0.46421
     3753.1     77.466     100.86     1.8657   0.055029     0.4153
       3753     77.677     99.311     1.8963   0.042696    0.35509
     3752.9     83.104     94.366     1.9933   0.022569    0.30374
     3752.8     92.488     88.382     2.1373   0.006153    0.27342
     3752.7     103.65     81.957     2.3239  -0.000819    0.26358
     3752.6     113.04     75.727     2.5085  -0.000164    0.26474
     3752.5     118.28      70.71     2.6301   0.003466    0.26948
     3752.4     118.42     67.689     2.6757   0.006766    0.27346
     3752.3     115.42     66.311     2.6823   0.008301    0.27441
     3752.2     112.12     65.624     2.6833   0.009084    0.27304
     3752.1     109.86     65.326     2.6889    0.00858    0.27186
       3752     108.79     65.232     2.6982   0.006599    0.27313
     3751.9     108.62     65.141     2.7046   0.005084    0.27631
     3751.8     108.69     65.065     2.7058   0.005987    0.28273
     3751.7     108.26      65.14     2.7023   0.009171    0.29405
     3751.6     107.71      65.41     2.6924   0.011183    0.30867
     3751.5     107.81     66.204     2.6741   0.004426    0.32856
     3751.4     108.41     67.925     2.6483  -0.020348    0.35456
     3732.4     91.951     64.799     2.7359   0.019339    0.25892
     3732.3     88.863     63.918     2.7503   0.027653    0.25198
     3732.2     85.055     62.571     2.7633   0.036973    0.24522
     3732.1     80.532     61.671     2.7722   0.043613    0.24078
       3732     76.499     61.527     2.7773   0.044804    0.23981
     3731.9     74.735     61.901     2.7815   0.040668    0.24236
     3731.8     75.775     62.703     2.7898   0.033681    0.24869
     3731.7     80.183     63.673     2.8017    0.02597    0.25828
     3731.6     87.272     64.358     2.8111   0.019282    0.26835
     3731.5     94.465     64.562     2.8107   0.014512    0.27532
     3731.4      99.09     64.351     2.7946   0.011515    0.27576
     3731.3     99.878     63.983     2.7652   0.009601    0.26908
     3731.2     97.083     63.638     2.7303   0.008479    0.25711
     3731.1     92.317     63.449     2.7005   0.008213     0.2439
       3731     88.441      63.46     2.6828   0.008559    0.23444
     3730.9     87.034     63.728     2.6792   0.008677    0.23166
     3730.8     89.117     64.282     2.6912   0.007919    0.23726
     3730.7     93.792     65.013     2.7143   0.006699     0.2481
     3730.6     99.067     66.248     2.7418   0.005385    0.26193
     3730.5     103.01     68.743     2.7583   0.004454    0.27776
     3730.4     105.47     72.492     2.7473    0.00438    0.29395
     3730.3     106.83     76.501     2.6919   0.004793    0.31248
     3730.2     106.78     79.176     2.5914   0.005027    0.33429
     3730.1     104.65     80.747     2.4817   0.005021    0.35839
       3730     98.364     81.077     2.3982   0.004628    0.37842
     3729.9     86.576     79.713     2.3645   0.003796    0.38481
     3729.8     71.656     76.854     2.3715   0.003192    0.37503
     3729.7     56.482     73.335     2.4076   0.003869    0.34849
     3729.6     44.075     70.572     2.4546   0.006453    0.31028
     3729.5     35.803     68.887     2.4941   0.009901    0.26978
     3729.4     31.751     68.081     2.5167   0.012818    0.23605
     3729.3     29.936     67.686     2.5251   0.014377    0.21312
     3729.2     29.104     67.499     2.5262   0.014605    0.19959
     3729.1     28.651     67.561     2.5234   0.013838    0.19327
       3729     27.553     67.804     2.5179   0.012507    0.19144
     3728.9     25.799      68.09     2.5112   0.011158      0.191
     3728.8     23.892     68.414     2.5042   0.010219    0.19037
     3728.7     22.005     68.922     2.4968   0.009798    0.18932
     3728.6     20.472     69.593     2.4889   0.009542    0.18872
     3728.5     19.572     70.211     2.4806    0.00898    0.18971
     3728.4     19.228     70.557     2.4722   0.007973    0.19261
     3728.3     19.357     70.696     2.4645   0.006743    0.19623
     3728.2      20.15     70.847     2.4575   0.005556    0.19865
     3728.1     21.707     71.043     2.4513   0.004485    0.19838
