~Version ---------------------------------------------------
VERS.     2.0 : CWLS log ASCII Standard -VERSION 2.0
WRAP.      NO : ONE LINE PER DEPTH STEP
~Well ------------------------------------------------------
STRT.M                       3986.9004 : First Index Value
STOP.M                       3374.9004 : Last Index Value
STEP.M            -0.09999999999990905 : Frame Spacing
NULL.                          -999.25 : Absent Value
WELL.                        D12-03-S1 : Well Name
FLD .     FINDER_composites_22-02-2005 : Field Name
CNTY.                                  : County
STAT.                                  : State
CTRY.                                  : Country
LOC .                                  : Location
API .                                  : API Number
DATE.                                  : Date
COMP.                              PEN : Company Name
SRVC.                                  : Service Company
~Curves ----------------------------------------------------
DEPT.M         : 
GR  .GAPI      : 
DT  .US/F      : 
RHOB.G/C3      : 
DRHO.G/C3      : 
NPHI.V/V       : 
~Params ----------------------------------------------------
TDL .M            3999.0 : Total Depth (Logger)
TDD .M            3999.0 : Total Depth (Driller)
UBID.               7657 : Unique Borehole Id
PDAT.     Mean Sea Level : Permanent Datum
EPD .M               0.0 : Elevation of Permanent Datum (PDAT) above Mean Sea Level
LMF .       Rotary Table : Logging Measured From (Name of Logging Elevation Reference)
APD .M              34.2 : Elevation of Depth Reference (LMF) Above Permanent Datum
~Other -----------------------------------------------------
~ASCII -----------------------------------------------------
     3986.9     64.056     61.236     2.6803   0.013051    0.12798
     3986.8     65.767     60.999     2.6806   0.017559     0.1254
     3986.7     69.278      60.85     2.6858   0.021186     0.1252
     3986.6     72.446      60.77     2.6901   0.019977    0.12542
     3986.5     74.993     60.678     2.6934   0.015376     0.1258
     3986.4     77.146     60.636     2.6976    0.01132    0.12641
     3986.3     78.003     60.948      2.701   0.008771    0.12689
     3986.2      79.33     61.591     2.7022   0.007516    0.12829
     3986.1     82.346     62.178     2.7017   0.007232    0.13119
       3986     85.451     62.279     2.7006   0.007282    0.13482
     3985.9     87.983     62.065     2.6998   0.007386    0.14442
     3985.8     90.305     61.945     2.7005   0.008232    0.16273
     3985.7     91.792     62.033      2.706   0.012307    0.18568
     3985.6     93.981     62.398     2.7162   0.018606    0.20932
     3985.5      98.64     63.079     2.7285   0.024814    0.23137
     3985.4     105.36     64.172     2.7425   0.033026    0.24495
     3985.3     112.37     65.712     2.7486    0.03679    0.24866
     3985.2     118.64     67.556     2.7399   0.029857    0.24812
     3985.1     121.92     68.742      2.726   0.020011    0.24444
       3985     122.37     68.849      2.715    0.01319    0.23884
     3984.9     122.43     68.397     2.7055   0.006949    0.23381
     3984.8     122.09     67.968     2.7008   0.002355    0.23064
     3984.7     120.81     67.768     2.7007   0.000246    0.22893
     3984.6     118.83     67.624     2.6998  -0.001246    0.22766
     3984.5     115.49     67.498     2.6995   -0.00277    0.22734
     3984.4     111.41     67.446     2.7026  -0.003569    0.22843
     3984.3     108.45     67.491     2.7078  -0.002744    0.23044
     3984.2     108.06      67.31     2.7129   -0.00134    0.23314
     3984.1     109.73     66.744     2.7148  -0.000641    0.23605
       3984      111.2     66.211     2.7107  -0.000288    0.23802
     3983.9     111.75     65.839     2.7027   -6.9e-05    0.23719
     3983.8     111.54      65.47     2.6946      8e-06    0.23349
     3983.7     110.28     65.009      2.687    7.1e-05    0.23052
     3983.6     107.93     64.525     2.6822   0.001035    0.22859
     3983.5     104.29     64.012     2.6824   0.003173    0.22329
     3983.4     98.231     63.143     2.6842   0.004226    0.20882
     3983.3     90.071     61.997     2.6863   0.004146    0.18475
     3983.2     81.421     60.988     2.6894   0.004678    0.15627
     3983.1     72.714     60.168     2.6925    0.00551    0.12798
       3983     64.821     59.471     2.6956   0.006694    0.10548
     3982.9     59.905     58.912     2.6989   0.008928   0.095754
     3982.8     57.414      58.46     2.7018   0.011256   0.093303
     3982.7     56.268     58.078     2.7023   0.012341   0.091652
     3982.6         56     57.773     2.6989   0.011728   0.089366
     3982.5     56.001     57.503     2.6936   0.010834   0.087803
     3982.4     55.708      57.29      2.689   0.010985   0.089748
     3982.3     55.232     57.182      2.686   0.011955   0.097396
     3982.2     56.291     56.965     2.6852   0.013263    0.11075
     3982.1     60.459     56.572     2.6854   0.014565    0.12827
       3982     66.258     56.472     2.6837   0.015388    0.14556
     3981.9     71.819     56.808     2.6777   0.016008    0.15875
     3981.8     75.765     57.272     2.6687   0.019133    0.16551
     3981.7     77.531     57.471     2.6617   0.029051    0.16817
     3981.6     77.978     57.574     2.6553   0.044719    0.16991
     3981.5     78.138     58.209     2.6467   0.061861    0.17232
     3981.4     78.488     59.553     2.6402    0.07957    0.17704
     3981.3     79.513     60.724     2.6292   0.095451    0.18394
     3981.2     82.026     60.666     2.5832    0.10271    0.19074
     3981.1     86.374     60.122     2.4776   0.099808    0.19538
       3981      92.27     60.142     2.3518    0.09662    0.19774
     3980.9     98.871     60.551     2.2829    0.10745    0.19912
     3980.8     104.86     60.654     2.2719     0.1327    0.20002
     3980.7     108.32     60.599     2.3051    0.17042     0.2015
     3980.6     108.13     61.268     2.3937    0.22206    0.20545
     3980.5     105.97     62.136     2.4895    0.27219    0.21096
     3980.4     104.04     62.426     2.5454    0.30444    0.21582
     3980.3     102.65     62.616     2.5727    0.31747     0.2201
     3980.2     102.34     62.967     2.5755    0.30611    0.22459
     3980.1     103.29     63.433     2.5518    0.26555    0.22856
       3980     104.79         64     2.5164    0.20352    0.23023
     3979.9     106.23     64.404     2.4875     0.1364    0.23061
     3979.8     107.03     64.398      2.473   0.078453    0.23106
     3979.7     106.41     64.045     2.4698    0.03756    0.23089
     3979.6     104.45     63.479     2.4696   0.015383     0.2314
     3979.5     102.19     63.026     2.4645   0.007024    0.23367
     3979.4      100.6     63.054     2.4511   0.004603    0.23547
     3979.3     99.893     63.065     2.4358    0.00258    0.23594
     3979.2     99.662     62.376     2.4267   0.000971    0.23527
     3979.1     99.583      61.46     2.4227   0.000137    0.23263
       3979     98.536     61.097     2.4197   0.000191    0.22934
     3978.9     95.874     61.076     2.4174   0.001736    0.22481
     3978.8     92.575     60.552     2.4165   0.005429    0.21496
     3978.7     89.037     59.805     2.4159   0.009101    0.20129
     3978.6     85.123      59.81     2.4191   0.010006    0.18798
     3978.5     81.955     60.346     2.4374   0.008389    0.17538
     3978.4     80.397     60.436      2.475    0.00519    0.16573
     3978.3     80.759     59.807     2.5282   0.002095    0.16071
     3978.2     82.901     59.244     2.5892    0.00227    0.15596
     3978.1     85.637     59.105     2.6368    0.00599    0.15011
       3978     87.358     59.028     2.6427   0.009636    0.14789
     3977.9     87.414     58.827     2.5946   0.009674    0.15404
     3977.8     86.329     58.665     2.4908   0.007705    0.17296
     3977.7     84.852     58.824     2.3447   0.008932    0.20311
     3977.6     83.304      59.42     2.1847   0.018054    0.23631
     3977.5       82.5     60.235     2.0686   0.041752    0.26391
     3977.4     83.083     60.917     2.0321   0.078759    0.28121
     3977.3      84.71     61.379     2.0548    0.11711    0.28807
     3977.2     87.337     62.202     2.1208    0.14465    0.28972
     3977.1     90.941     63.626     2.2129    0.16013    0.29228
       3977     94.967     64.945     2.2968    0.17093    0.29653
     3976.9     98.359     65.667     2.3532    0.18487    0.29734
     3976.8     100.87     66.073     2.3944    0.20689    0.29136
     3976.7     103.28      66.62     2.4406    0.23784    0.28139
     3976.6        106      66.98     2.4978    0.27178    0.27202
     3976.5     109.12     66.699     2.5578    0.29784    0.26696
     3976.4     112.71     66.032     2.6021    0.29946    0.27083
     3976.3      115.4     65.975     2.6174    0.27421    0.28158
     3976.2     116.33     66.868     2.6078    0.23306    0.29269
     3976.1     117.01     67.406     2.5913    0.18925    0.29783
       3976     117.91     66.646     2.5933    0.15807    0.29414
     3975.9     118.26     65.111     2.6228    0.14745    0.28353
     3975.8     118.34     64.508     2.6603    0.14771    0.26997
     3975.7     116.85     64.679     2.6848    0.14319    0.25518
     3975.6     112.46     64.397       2.69    0.12674    0.23978
     3975.5     107.25      63.59     2.6783    0.09889    0.22436
     3975.4     103.11     62.823     2.6625   0.065362    0.20911
     3975.3      100.5     62.448     2.6555   0.034553     0.1953
     3975.2     99.847     62.623     2.6652   0.014497    0.18466
     3975.1     101.42     63.371     2.6865   0.006007    0.17767
       3975     104.76     64.543     2.7087   0.002961    0.17293
