~Version ---------------------------------------------------
VERS.     2.0 : CWLS log ASCII Standard -VERSION 2.0
WRAP.      NO : ONE LINE PER DEPTH STEP
~Well ------------------------------------------------------
STRT.M                       3986.9004 : First Index Value
STOP.M                       3374.9004 : Last Index Value
STEP.M            -0.09999999999990905 : Frame Spacing
NULL.                          -999.25 : Absent Value
WELL.                        D12-03-S1 : Well Name
FLD .     FINDER_composites_22-02-2005 : Field Name
CNTY.                                  : County
STAT.                                  : State
CTRY.                                  : Country
LOC .                                  : Location
API .                                  : API Number
DATE.                                  : Date
COMP.                              PEN : Company Name
SRVC.                                  : Service Company
~Curves ----------------------------------------------------
DEPT.M         : 
GR  .GAPI      : 
DT  .US/F      : 
RHOB.G/C3      : 
DRHO.G/C3      : 
NPHI.V/V       : 
~Params ----------------------------------------------------
TDL .M            3999.0 : Total Depth (Logger)
TDD .M            3999.0 : Total Depth (Driller)
UBID.               7657 : Unique Borehole Id
PDAT.     Mean Sea Level : Permanent Datum
EPD .M               0.0 : Elevation of Permanent Datum (PDAT) above Mean Sea Level
LMF .       Rotary Table : Logging Measured From (Name of Logging Elevation Reference)
APD .M              34.2 : Elevation of Depth Reference (LMF) Above Permanent Datum
~Other -----------------------------------------------------
~ASCII -----------------------------------------------------
# ...
     3914.9      63.76     64.538     2.6602   0.006908    0.12497
     3914.8     66.961     64.377     2.6601   0.005998    0.12802
     3914.7     69.459     64.219     2.6603    0.00495    0.13051
     3914.6      70.68     64.088     2.6618   0.004739    0.13158
     3914.5     69.935     63.991     2.6628   0.005895    0.13113
     3914.4     68.027     63.821     2.6638   0.007012    0.12994
     3914.3     66.533     63.597     2.6653   0.006667    0.12896
     3914.2     66.051     63.558     2.6653   0.005335    0.12865
     3914.1     67.031     63.678     2.6628   0.002995    0.13047
       3914     70.248     63.813     2.6592   0.000257    0.13571
     3913.9     76.089     64.041     2.6569  -0.000731    0.14385
     3913.8     83.928      64.65     2.6556   0.000679    0.15399
     3913.7     91.651     65.642     2.6557    0.00363    0.16333
     3913.6     97.265     66.673     2.6591   0.007504     0.1682
     3913.5     98.954     67.481     2.6604    0.01001    0.16754
     3913.4     96.697     67.949     2.6554   0.009466    0.16314
     3913.3     92.117     67.965     2.6495   0.006754    0.15642
     3913.2     87.922     67.636     2.6453   0.002714    0.14995
     3913.1     85.165     67.157     2.6428  -0.002103    0.14542
       3913     82.127     66.475     2.6475  -0.006709    0.14187
     3912.9     77.759     65.883     2.6597  -0.007286    0.13869
     3912.8     72.453     65.678     2.6723  -0.002746    0.13603
     3912.7     66.311     65.812     2.6735   0.002902    0.13418
     3912.6     61.251     66.135      2.661   0.008462    0.13325
     3912.5     58.392     66.551     2.6401   0.014619     0.1331
     3912.4     56.819     66.922     2.6133   0.016447    0.13406
     3912.3      55.56     67.204     2.5905    0.01442    0.13613
     3912.2     54.431     67.461     2.5794   0.012919    0.13878
     3912.1     53.979     67.739     2.5772   0.011603    0.14064
       3912     54.244     67.934     2.5788   0.009496    0.14074
     3911.9     54.813     67.945     2.5819   0.007267    0.13921
     3911.8     55.668     67.834     2.5813   0.006452    0.13659
     3911.7     56.335     67.801     2.5741   0.007527     0.1342
     3911.6     56.115     67.998      2.562   0.009953    0.13333
     3911.5     55.111     68.414      2.548   0.013211     0.1344
     3911.4     54.144     69.018     2.5342   0.015592    0.13639
     3911.3     53.985     69.781     2.5216   0.014951    0.13789
     3911.2     53.684     70.408     2.5112   0.011974    0.13869
     3911.1      52.63     70.817     2.5016   0.008485    0.13827
       3911     51.551     71.215       2.49   0.005522    0.13545
     3910.9     49.532     71.487     2.4777   0.002857    0.13231
     3910.8     46.051     71.601      2.467   0.000441    0.13057
     3910.7     42.555     71.809     2.4597   -0.00063    0.12918
     3910.6     40.144     72.306     2.4563   -0.00068    0.12867
     3910.5     38.927     72.838     2.4564  -0.000196    0.12971
     3910.4     37.779     72.766     2.4602   0.001797    0.13074
     3910.3     36.592     72.484     2.4663   0.004805    0.13026
     3910.2     35.681     72.718      2.472   0.006938    0.12807
     3910.1     34.214     72.982     2.4772   0.007624    0.12563
       3910     32.678     72.882     2.4828   0.006614    0.12322
     3909.9     32.484     72.517     2.4899   0.004492    0.12063
     3909.8     32.845     72.126     2.5002   0.003214    0.11886
     3909.7     33.566     71.873     2.5151   0.004077    0.11866
     3909.6     35.371     71.735      2.533    0.00661    0.12042
     3909.5     37.749     71.333     2.5545   0.009294    0.12606
     3909.4     41.222     70.481     2.5804   0.010934     0.1366
     3909.3       47.2     69.487     2.6092   0.011467    0.14927
     3909.2     55.663     68.402     2.6424   0.011794    0.16287
     3909.1     65.559     67.259     2.6766   0.011833    0.17486
       3909     75.518     66.192     2.7043   0.010416    0.18282
     3908.9     82.848     65.376     2.7198   0.008288      0.189
     3908.8      85.85     64.968     2.7173   0.007028    0.19675
     3908.7      87.63     64.978     2.6956   0.006772    0.20643
     3908.6     90.517     65.715     2.6577   0.008055     0.2191
     3908.5     95.651     67.421     2.6151   0.015975    0.23567
     3908.4     103.93     69.558     2.5831   0.038539     0.2539
     3908.3     114.13     71.764     2.5527   0.072009    0.27181
     3908.2     123.48      73.68     2.5066    0.10554    0.28848
     3908.1     130.65     74.486     2.4584     0.1382    0.30332
       3908     134.18     73.982     2.4135     0.1619     0.3142
     3907.9     133.29     72.936     2.3613    0.16149    0.31744
     3907.8     130.61     72.088     2.3158    0.13793    0.30997
     3907.7     128.13     71.152     2.3003    0.10016    0.29277
     3907.6     125.77     69.311     2.3285   0.055933    0.27072
     3907.5     124.77     67.246     2.4036   0.019063    0.24945
     3907.4     124.42     66.011     2.5146  -0.001143    0.23152
     3907.3     121.54     65.552     2.6341  -0.006273    0.21547
     3907.2     115.84     65.292     2.7134   -0.00388    0.19928
     3907.1     108.25     64.861     2.7295  -0.001401    0.18307
       3907     98.787     64.452     2.7073  -0.001529    0.17032
     3906.9     90.079     64.216     2.6829   -0.00172    0.16523
     3906.8     85.532      64.25     2.6717   0.000644    0.16903
     3906.7     86.759     64.678     2.6727   0.003166    0.17906
     3906.6     92.747     65.275     2.6815   0.004847    0.19119
     3906.5     100.99     65.627     2.6955   0.006806    0.20252
     3906.4     108.89     65.577      2.711   0.008703       0.21
     3906.3     114.49     65.293     2.7254   0.009962    0.21185
     3906.2     117.52     65.081     2.7391    0.00975    0.20857
     3906.1     118.11     65.016     2.7532   0.007146    0.20265
       3906     116.16     64.865     2.7683   0.003438    0.19789
     3905.9     111.62     64.377     2.7812   0.000951    0.19713
     3905.8     105.97     63.732     2.7867   0.000319     0.2008
     3905.7     100.57     63.444     2.7842   0.001755    0.20586
     3905.6     96.372     63.758     2.7758   0.004972    0.21003
     3905.5      94.81     64.333     2.7621   0.007569    0.21522
     3905.4     95.293     64.922     2.7478    0.00816    0.22495
     3905.3     96.337     65.664     2.7408   0.008868    0.24086
     3905.2     97.947     66.479     2.7435   0.013617    0.26157
     3905.1     100.17     67.171     2.7543   0.024522     0.2827
       3905     102.54     67.791      2.772    0.04082    0.29995
     3904.9     105.54     68.654     2.7932   0.060408    0.31314
     3904.8     110.12      69.47     2.8027   0.077281    0.32252
     3904.7     116.08     69.857     2.7698   0.082684     0.3269
     3904.6     121.79      70.39     2.6677   0.074022    0.32554
     3904.5     125.32     71.052     2.5109   0.061797    0.31435
     3904.4     125.85       71.3      2.355   0.061687    0.29204
     3904.3     124.04     71.579     2.2535   0.078578    0.26858
     3904.2     121.87     72.277     2.2338    0.11093    0.25736
     3904.1     121.17     72.824     2.2916    0.15632    0.26373
       3904      122.1     72.369     2.4046    0.20616    0.28278
     3903.9        124     71.517     2.5258     0.2438    0.30336
     3903.8     125.87     71.439     2.6031    0.25849    0.31491
     3903.7      126.1     71.788     2.6114    0.25528    0.31048
     3903.6      124.5     71.599     2.5645    0.24561    0.28712
     3903.5     122.33      71.09     2.5022    0.24121    0.25062
     3903.4     120.13     71.736     2.4573    0.25256    0.21316
     3903.3      117.9     73.157     2.4391    0.27441    0.18186
     3903.2     115.78     73.508      2.439    0.29074    0.15968
     3903.1     113.68     72.324     2.4427    0.29425     0.1501
       3903     110.46     70.025     2.4448    0.28627    0.15416
