~Version ---------------------------------------------------
VERS.     2.0 : CWLS log ASCII Standard -VERSION 2.0
WRAP.      NO : ONE LINE PER DEPTH STEP
~Well ------------------------------------------------------
STRT.M                       3986.9004 : First Index Value
STOP.M                       3374.9004 : Last Index Value
STEP.M            -0.09999999999990905 : Frame Spacing
NULL.                          -999.25 : Absent Value
WELL.                        D12-03-S1 : Well Name
FLD .     FINDER_composites_22-02-2005 : Field Name
CNTY.                                  : County
STAT.                                  : State
CTRY.                                  : Country
LOC .                                  : Location
API .                                  : API Number
DATE.                                  : Date
COMP.                              PEN : Company Name
SRVC.                                  : Service Company
~Curves ----------------------------------------------------
DEPT.M         : 
GR  .GAPI      : 
DT  .US/F      : 
RHOB.G/C3      : 
DRHO.G/C3      : 
NPHI.V/V       : 
~Params ----------------------------------------------------
TDL .M            3999.0 : Total Depth (Logger)
TDD .M            3999.0 : Total Depth (Driller)
UBID.               7657 : Unique Borehole Id
PDAT.     Mean Sea Level : Permanent Datum
EPD .M               0.0 : Elevation of Permanent Datum (PDAT) above Mean Sea Level
LMF .       Rotary Table : Logging Measured From (Name of Logging Elevation Reference)
APD .M              34.2 : Elevation of Depth Reference (LMF) Above Permanent Datum
~Other -----------------------------------------------------
~ASCII -----------------------------------------------------
# ...
       3584     80.698     66.333     2.6947   0.004582    0.33664
     3583.9     82.069     65.824     2.6945   0.003084    0.33671
     3583.8     82.545     65.392     2.6978   0.001881    0.33461
     3583.7     82.731     64.965     2.7009   0.001774    0.32978
     3583.6     83.878     64.373     2.7005   0.002984    0.32123
     3583.5     83.392     63.698     2.6951   0.004878    0.31047
     3583.4     81.914     63.259     2.6827   0.006563    0.29955
     3583.3     81.463     63.426     2.6625   0.007348    0.28905
     3583.2     80.016     64.431     2.6369   0.007019    0.27832
     3583.1     75.062     66.226      2.608   0.005684    0.26644
       3583     66.048     68.313     2.5784   0.003884     0.2527
     3582.9     54.762     70.233     2.5517   0.002065    0.23722
     3582.8     42.579     71.983     2.5307   0.000675    0.22081
     3582.7     31.927     73.607     2.5185   0.000268    0.20688
     3582.6     25.179      74.77     2.5141   0.000716    0.19781
     3582.5     23.166     75.261     2.5144   0.001612    0.19471
     3582.4     24.382     75.376     2.5142   0.002242    0.19681
     3582.3      27.25     75.724     2.5088   0.002103    0.20171
     3582.2     30.255     76.611     2.4955   0.000909    0.20706
     3582.1     31.375     77.652     2.4762  -0.000908    0.21051
       3582     30.721     78.604      2.454  -0.002381    0.21138
     3581.9     29.228     79.443     2.4319  -0.002743    0.20986
     3581.8     27.533     80.239     2.4103   -0.00242    0.20737
     3581.7     26.116     81.006     2.3885  -0.001949    0.20499
     3581.6      25.16     81.684     2.3679  -0.001677    0.20305
     3581.5     23.991     82.528     2.3502  -0.001964    0.20124
     3581.4     22.391      84.21     2.3381  -0.002755    0.19935
     3581.3     20.999     86.719     2.3354  -0.003503    0.19714
     3581.2     20.501     88.134     2.3424  -0.003493     0.1935
     3581.1     21.277      87.59     2.3579  -0.002334    0.18789
       3581       23.2     86.197     2.3794  -0.000294    0.18119
     3580.9     25.422     84.912     2.4016   0.001687    0.17511
     3580.8     26.889     83.973      2.419    0.00284    0.17172
     3580.7     26.989     83.299     2.4272   0.002985    0.17235
     3580.6     26.302     82.974     2.4273   0.002469    0.17566
     3580.5     25.687     83.046     2.4237   0.002043    0.17929
     3580.4      25.53     83.186     2.4218   0.002501    0.18155
     3580.3     25.951     82.889      2.425   0.003901    0.18163
     3580.2     26.346     81.811     2.4325   0.005635    0.17927
     3580.1     25.893     79.982     2.4418   0.007229     0.1742
       3580     24.843     77.889     2.4488   0.008322    0.16735
     3579.9     23.926      76.11     2.4509   0.008826    0.16046
     3579.8      23.54     74.846     2.4489   0.008845    0.15513
     3579.7     24.935     74.141     2.4446   0.008489    0.15291
     3579.6     28.823      74.07     2.4394   0.007644    0.15428
     3579.5     33.789     74.674     2.4333   0.006135    0.15799
     3579.4     38.012     75.605     2.4258   0.004065    0.16183
     3579.3     40.276      76.45     2.4164   0.001649     0.1646
     3579.2     39.338     77.074     2.4056  -0.000809    0.16606
     3579.1     35.448     77.478     2.3944  -0.002916     0.1666
       3579     30.138     77.526     2.3838    -0.0044    0.16656
     3578.9     25.072     76.892     2.3737  -0.005125      0.166
     3578.8     21.538     75.537     2.3648  -0.005107    0.16452
     3578.7     19.888     74.075     2.3582  -0.004528    0.16153
     3578.6     19.939     73.622     2.3549  -0.003777    0.15703
     3578.5     21.495     75.075     2.3562  -0.003124    0.15176
     3578.4     24.326     77.995     2.3632  -0.002526    0.14723
     3578.3     27.573     80.616     2.3745  -0.001804    0.14519
     3578.2     31.044     82.076     2.3857  -0.000805     0.1465
     3578.1     34.628     83.095     2.3905    8.3e-05     0.1509
       3578     37.058     84.209     2.3849   -3.4e-05    0.15696
     3577.9     37.518     84.658     2.3686  -0.001632    0.16334
     3577.8     36.112     83.778     2.3454   -0.00423     0.1693
     3577.7      33.27     82.815     2.3231  -0.006697    0.17425
     3577.6     29.665     82.873     2.3082   -0.00786    0.17713
     3577.5     26.299     83.589     2.3033  -0.007355    0.17674
     3577.4     23.896      84.07     2.3046  -0.006051    0.17319
     3577.3     22.065     83.932     2.3076   -0.00537    0.16724
     3577.2     20.356     83.458     2.3098  -0.006176    0.16041
     3577.1      19.34     83.011     2.3113  -0.008139    0.15447
       3577     19.025     82.669     2.3143  -0.009819    0.15116
     3576.9     18.978     82.388     2.3201  -0.009969     0.1509
     3576.8     19.744     82.273     2.3275  -0.008568    0.15258
     3576.7     21.167     82.314     2.3344  -0.006544    0.15484
     3576.6      22.27     82.306     2.3406  -0.004814    0.15649
     3576.5     22.591     82.092     2.3477  -0.003758    0.15627
     3576.4     22.601     81.992     2.3591  -0.003001    0.15399
     3576.3     22.986     82.314     2.3769  -0.001947    0.15097
     3576.2      24.01     82.718     2.3994  -0.000441    0.14954
     3576.1     26.118     82.443     2.4231   0.001172    0.15159
       3576     29.254     81.258     2.4438   0.002481    0.15692
     3575.9     32.196     79.845     2.4581   0.003523    0.16384
     3575.8     34.734     78.821      2.466   0.004813    0.17093
     3575.7     37.429     78.207     2.4696   0.006548     0.1773
     3575.6      40.36     77.346      2.471   0.008124    0.18323
     3575.5     43.702      76.18     2.4711   0.008577    0.19004
     3575.4     47.391      75.29     2.4697   0.007496    0.19807
     3575.3     49.911     75.208     2.4667   0.005034    0.20574
     3575.2     51.245     75.763     2.4633   0.001917    0.21176
     3575.1     52.554     76.489     2.4618  -0.001001    0.21579
       3575     54.224     77.591     2.4653  -0.003387    0.21772
     3574.9     55.893     78.885     2.4741   -0.00487      0.218
     3574.8     57.291     79.826     2.4855  -0.005283    0.21759
     3574.7     56.546     80.391     2.4924  -0.004886    0.21696
     3574.6     52.956     80.931     2.4892  -0.004148    0.21651
     3574.5     47.673     81.738     2.4761  -0.003382    0.21659
     3574.4     42.232     82.827     2.4549  -0.002967     0.2169
     3574.3     38.216     84.118     2.4311  -0.002982    0.21721
     3574.2      36.08     85.758     2.4086  -0.003135    0.21771
     3574.1     35.961     87.386     2.3923  -0.002862    0.21763
       3574     36.981     88.443     2.3837   -0.00198    0.21663
     3573.9     37.899     88.663     2.3803  -0.000786    0.21559
     3573.8     37.829     88.088     2.3791   0.000195    0.21543
     3573.7     36.724     87.195     2.3775   0.000466     0.2168
     3573.6     34.986      86.43     2.3747  -0.000365    0.22063
     3573.5     33.667      86.47      2.372  -0.001916    0.22588
     3573.4     33.467     87.418     2.3712  -0.003302    0.23046
     3573.3     34.238      88.45     2.3734  -0.003861    0.23274
     3573.2     35.719     88.709     2.3776  -0.003357    0.23212
     3573.1     37.568     88.125     2.3819  -0.002151    0.22971
       3573     39.041     87.522     2.3847    -0.0008    0.22768
     3572.9     40.089     87.381     2.3852   0.000294    0.22748
     3572.8     41.358     87.404     2.3843   0.001058     0.2287
     3572.7     42.197     87.297      2.383   0.001188    0.22994
     3572.6     41.853     86.927     2.3823   0.000584    0.22985
     3572.5     40.609     86.392     2.3827  -0.000345    0.22808
     3572.4     39.166     85.891     2.3839  -0.001403    0.22468
     3572.3     38.175     85.705     2.3851  -0.002498    0.22038
     3572.2     37.845     86.033     2.3857  -0.003611    0.21648
     3572.1     38.507     86.984     2.3852   -0.00501     0.2138
