~Version ---------------------------------------------------
VERS.     2.0 : CWLS log ASCII Standard -VERSION 2.0
WRAP.      NO : ONE LINE PER DEPTH STEP
~Well ------------------------------------------------------
STRT.M                       3986.9004 : First Index Value
STOP.M                       3374.9004 : Last Index Value
STEP.M            -0.09999999999990905 : Frame Spacing
NULL.                          -999.25 : Absent Value
WELL.                        D12-03-S1 : Well Name
FLD .     FINDER_composites_22-02-2005 : Field Name
CNTY.                                  : County
STAT.                                  : State
CTRY.                                  : Country
LOC .                                  : Location
API .                                  : API Number
DATE.                                  : Date
COMP.                              PEN : Company Name
SRVC.                                  : Service Company
~Curves ----------------------------------------------------
DEPT.M         : 
GR  .GAPI      : 
DT  .US/F      : 
RHOB.G/C3      : 
DRHO.G/C3      : 
NPHI.V/V       : 
~Params ----------------------------------------------------
TDL .M            3999.0 : Total Depth (Logger)
TDD .M            3999.0 : Total Depth (Driller)
UBID.               7657 : Unique Borehole Id
PDAT.     Mean Sea Level : Permanent Datum
EPD .M               0.0 : Elevation of Permanent Datum (PDAT) above Mean Sea Level
LMF .       Rotary Table : Logging Measured From (Name of Logging Elevation Reference)
APD .M              34.2 : Elevation of Depth Reference (LMF) Above Permanent Datum
~Other -----------------------------------------------------
~ASCII -----------------------------------------------------
# ...
     3794.9     56.802     67.257     2.5571   0.039313    0.18629
     3794.8      61.52     66.944      2.563   0.049712    0.19285
     3794.7     63.464     66.629     2.5657   0.065608    0.19729
     3794.6     61.806     66.788     2.5609    0.08011    0.19936
     3794.5     56.993     67.583     2.5503   0.090192    0.19939
     3794.4     50.688     68.655     2.5402   0.098619    0.19788
     3794.3     44.976     69.742     2.5234    0.10233    0.19675
     3794.2      41.09     70.783     2.4997    0.10142     0.1967
     3794.1      38.12     71.929      2.484    0.10312    0.19575
       3794     36.246     73.185     2.4689    0.10192    0.19538
     3793.9     35.774     74.222     2.4466   0.092193    0.19648
     3793.8     35.764     74.726     2.4313   0.082425    0.19561
     3793.7     35.258     74.968     2.4264   0.077534    0.19282
     3793.6      33.76     75.312     2.4243   0.076121    0.19035
     3793.5     32.149     75.362     2.4197   0.071752    0.18842
     3793.4     31.323     75.262     2.4156   0.066105    0.18792
     3793.3     31.798     75.448     2.4135   0.062226     0.1898
     3793.2     33.399     75.615     2.4024   0.053099    0.19261
     3793.1     35.645     75.738     2.3815   0.039546    0.19515
       3793     37.724     76.152     2.3619   0.031539    0.19705
     3792.9     38.655     76.789     2.3499   0.033239    0.19801
     3792.8     38.126     77.657     2.3458   0.042945    0.19746
     3792.7       36.7     78.802     2.3479   0.055925      0.195
     3792.6     35.305     79.747     2.3554   0.069034    0.19165
     3792.5     34.523     80.117     2.3638   0.077419    0.18823
     3792.4      34.68     79.902     2.3636   0.073408    0.18514
     3792.3     35.816     79.171     2.3584   0.061522    0.18257
     3792.2     37.533     78.171     2.3582   0.053037    0.17977
     3792.1      39.07     77.437     2.3682   0.056388    0.17496
       3792     40.921     76.843     2.3845   0.067459    0.16732
     3791.9     44.143     75.898     2.4032   0.076174    0.15756
     3791.8     48.623     74.607     2.4262   0.075928    0.14824
     3791.7     53.878     73.259     2.4525   0.064771    0.14104
     3791.6     59.137     72.014     2.4805   0.045521    0.13663
     3791.5     63.013     70.722     2.5114   0.027468    0.13514
     3791.4     65.024     69.337     2.5382   0.017173    0.13614
     3791.3     65.491     68.358     2.5441   0.013721    0.14153
     3791.2     65.793     68.523     2.5173   0.010617    0.15783
     3791.1     69.136     70.012     2.4511   0.003374    0.19632
       3791     77.977     72.565     2.3471  -0.006292    0.26126
     3790.9     90.103     75.806     2.2312   -0.01544    0.33324
     3790.8     102.16     78.869     2.1325  -0.020904    0.38585
     3790.7     112.27     80.428     2.0692  -0.020859    0.40332
     3790.6     118.23     79.852     2.0523  -0.016799    0.38417
     3790.5     119.11     77.465     2.0892  -0.011347    0.34184
     3790.4     116.32     74.214     2.1822  -0.005782    0.29671
     3790.3     111.94     71.011     2.3196  -0.000612     0.2633
     3790.2     107.32     68.263     2.4761   0.005212    0.24349
     3790.1     103.13     65.988     2.6195    0.01608     0.2341
       3790     100.11     64.288     2.7171   0.036999    0.23392
     3789.9     99.031     63.516      2.754   0.061938     0.2405
     3789.8     100.25     63.715     2.7438   0.077905    0.24679
     3789.7     103.13     64.142     2.7193   0.082817    0.25021
     3789.6     106.55     64.186     2.6947   0.076238    0.25245
     3789.5     109.74     64.194     2.6688   0.058542    0.25558
     3789.4     112.23     64.711     2.6623   0.055207    0.26493
     3789.3     112.88     65.642     2.6828   0.085901    0.28437
     3789.2     110.76     66.407     2.7019    0.13687    0.30996
     3789.1     107.78     67.136     2.7078    0.19194    0.33386
       3789     105.86     68.053     2.6951    0.23235    0.35087
     3788.9     105.03     68.579     2.6481    0.23417    0.35723
     3788.8     106.16     68.359     2.5801    0.20087    0.34713
     3788.7     108.72     67.519     2.5144    0.15088    0.32222
     3788.6     109.26      66.28       2.46   0.097528    0.29595
     3788.5     105.66     64.769     2.4294   0.056465    0.27725
     3788.4     98.798     63.267     2.4303   0.032416    0.26979
     3788.3     91.464     62.295     2.4563   0.016607    0.27596
     3788.2      87.37     61.898     2.5033   0.003992     0.2861
     3788.1     88.518     61.828      2.571  -0.005034    0.28493
       3788     93.256     61.915     2.6514  -0.010856    0.26677
     3787.9     96.614     61.635     2.7285  -0.010908    0.23562
     3787.8      94.68     60.686     2.7853  -0.004518    0.20276
     3787.7     87.871     59.475     2.8162   0.003165    0.18132
     3787.6     78.746     58.509     2.8238   0.007762    0.18483
     3787.5     71.566     58.138     2.8166   0.009543     0.2146
     3787.4     70.226     58.521     2.8069   0.012701    0.25751
     3787.3     76.413     59.948     2.8015   0.027993     0.2985
     3787.2      88.05     62.196     2.7928   0.053284    0.32535
     3787.1     101.67     64.571     2.7655   0.071709    0.33164
       3787     113.25     66.465      2.729   0.071627    0.32109
     3786.9     120.55     67.727     2.7027   0.055229    0.30431
     3786.8      123.7     68.507     2.6927   0.028473    0.28781
     3786.7     122.71     68.521     2.7117   0.006707    0.27631
     3786.6     119.01     67.808      2.752  -0.001293    0.27115
     3786.5     114.89     66.889     2.7817   0.000342    0.27089
     3786.4     112.09     66.298     2.7814   0.004658    0.27423
     3786.3     111.12     66.081     2.7592    0.00876    0.28004
     3786.2     112.27     65.925     2.7351   0.013509    0.28694
     3786.1     114.24     66.009     2.7208   0.016059     0.2903
       3786     115.41     66.456     2.7168   0.014856    0.28563
     3785.9     114.69     66.779     2.7231   0.013855    0.26838
     3785.8     111.76     66.354     2.7303   0.013956    0.24324
     3785.7     107.35     65.153     2.7296   0.013587    0.21802
     3785.6     103.65      63.84     2.7203    0.01323     0.1993
     3785.5     101.76     62.891     2.7114   0.012117    0.19172
     3785.4     101.51     62.404      2.712   0.009261    0.19573
     3785.3     102.54     62.352     2.7289   0.006241    0.20552
     3785.2     103.03     62.594     2.7565   0.004759    0.21721
     3785.1     101.29     62.891      2.783   0.005097    0.22894
       3785     97.915     62.772     2.8029   0.006507    0.23478
     3784.9     94.228     62.131     2.8139   0.007968    0.23284
     3784.8     91.162     61.285     2.8149    0.00875    0.22668
     3784.7     88.912     60.318     2.8072   0.008227    0.21649
     3784.6     87.623     59.615     2.7928   0.006908    0.20732
     3784.5     87.318      59.67     2.7742   0.006125     0.2071
     3784.4     89.608     60.304     2.7607   0.006294    0.21743
     3784.3     95.155     61.007     2.7628   0.007515    0.23353
     3784.2     102.29     61.498     2.7811    0.00982    0.24912
     3784.1     109.23     62.113     2.7989   0.014241    0.25862
       3784     113.38     63.157     2.7983   0.020676    0.26249
     3783.9     113.23     64.422     2.7822   0.027166    0.26982
     3783.8      111.7     66.022      2.757   0.033546    0.28501
     3783.7     112.53     67.941     2.7321   0.037959    0.30618
     3783.6     114.85     69.969     2.7113   0.036303     0.3308
     3783.5     119.57     71.629     2.6975    0.02839    0.34871
     3783.4     126.92     72.417     2.6899   0.019393    0.35135
     3783.3      132.3     72.114      2.684   0.012973    0.34671
     3783.2     133.29     70.991      2.678   0.010229    0.33723
     3783.1      131.1     69.911     2.6731     0.0097    0.32339
       3783     126.43     68.968     2.6696   0.009074    0.31117
