~Version ---------------------------------------------------
VERS.     2.0 : CWLS log ASCII Standard -VERSION 2.0
WRAP.      NO : ONE LINE PER DEPTH STEP
~Well ------------------------------------------------------
STRT.M                       3986.9004 : First Index Value
STOP.M                       3374.9004 : Last Index Value
STEP.M            -0.09999999999990905 : Frame Spacing
NULL.                          -999.25 : Absent Value
WELL.                        D12-03-S1 : Well Name
FLD .     FINDER_composites_22-02-2005 : Field Name
CNTY.                                  : County
STAT.                                  : State
CTRY.                                  : Country
LOC .                                  : Location
API .                                  : API Number
DATE.                                  : Date
COMP.                              PEN : Company Name
SRVC.                                  : Service Company
~Curves ----------------------------------------------------
DEPT.M         : 
GR  .GAPI      : 
DT  .US/F      : 
RHOB.G/C3      : 
DRHO.G/C3      : 
NPHI.V/V       : 
~Params ----------------------------------------------------
TDL .M            3999.0 : Total Depth (Logger)
TDD .M            3999.0 : Total Depth (Driller)
UBID.               7657 : Unique Borehole Id
PDAT.     Mean Sea Level : Permanent Datum
EPD .M               0.0 : Elevation of Permanent Datum (PDAT) above Mean Sea Level
LMF .       Rotary Table : Logging Measured From (Name of Logging Elevation Reference)
APD .M              34.2 : Elevation of Depth Reference (LMF) Above Permanent Datum
~Other -----------------------------------------------------
~ASCII -----------------------------------------------------
# ...
       3548     21.799     82.258     2.2622  -0.005964    0.16783
     3547.9     22.549     80.592     2.2524   -0.00317    0.17005
     3547.8     23.288     78.959     2.2485  -0.001954    0.16864
     3547.7     23.925     78.024      2.256  -0.002443    0.16425
     3547.6     24.476     78.011     2.2788  -0.003931    0.15873
     3547.5     25.725     78.828     2.3153   -0.00527    0.15476
     3547.4     28.354     79.661      2.359  -0.005446    0.15435
     3547.3     32.443     79.821     2.4015  -0.004377     0.1579
     3547.2     37.524     79.505     2.4345  -0.002875     0.1644
     3547.1     42.787     79.189      2.457  -0.001908     0.1725
       3547     47.108     78.945     2.4718  -0.001975    0.18094
     3546.9      49.46     78.621     2.4823  -0.003112    0.18802
     3546.8     49.626     78.241     2.4905  -0.004747    0.19308
     3546.7     48.009     77.983     2.4958  -0.006065    0.19604
     3546.6     45.454     77.763     2.4986   -0.00643    0.19746
     3546.5     42.609     77.469     2.4999  -0.005429     0.1988
     3546.4     39.987     77.207     2.5002  -0.003173    0.20099
     3546.3     38.273     77.235     2.5002  -0.000473    0.20338
     3546.2     37.662     77.723     2.5001   0.001729    0.20543
     3546.1     37.744     78.545     2.5005   0.002962    0.20743
       3546     38.175     79.267     2.5028   0.003269    0.20941
     3545.9     39.279     79.382     2.5079   0.002869    0.21161
     3545.8     41.164     78.793     2.5155   0.002062    0.21437
     3545.7     43.207     77.857     2.5241   0.001337    0.21724
     3545.6     46.554     76.457     2.5336   0.001245    0.21949
     3545.5     52.135      74.44     2.5454   0.002153    0.22105
     3545.4     57.748     72.471     2.5605   0.003997    0.22256
     3545.3     62.495     70.718     2.5779   0.006404    0.22447
     3545.2     67.127     68.558     2.5958   0.008812    0.22706
     3545.1     71.083     65.574     2.6121   0.010566    0.23066
       3545     74.188     62.316     2.6275   0.011008    0.23549
     3544.9     77.163     59.894     2.6438   0.010179    0.24108
     3544.8     80.342     58.994     2.6621   0.008879    0.24675
     3544.7     83.099     60.077     2.6797   0.008011    0.25209
     3544.6     85.152     62.676     2.6911   0.007929    0.25665
     3544.5     87.723     65.283     2.6919   0.008379    0.26003
     3544.4      89.94     67.097     2.6804   0.008605    0.26325
     3544.3     90.295     68.249     2.6617   0.008154    0.26754
     3544.2     90.169     68.896     2.6438   0.007279    0.27377
     3544.1     89.985     69.222     2.6334    0.00661    0.28052
       3544     88.979      69.44      2.631   0.006469    0.28565
     3543.9     88.272      69.51     2.6345   0.006804    0.28746
     3543.8     88.054     69.235     2.6403   0.007514    0.28513
     3543.7     87.191     68.581     2.6454   0.008504    0.27965
     3543.6     84.454     67.667     2.6482   0.009616     0.2734
     3543.5     79.993     66.774     2.6501   0.010678    0.26866
     3543.4     74.515     66.049     2.6541   0.011666     0.2657
     3543.3     68.595     65.504     2.6666   0.012007    0.26384
     3543.2     63.496     65.232     2.6885   0.011322    0.26253
     3543.1       60.1     65.338     2.7168   0.009732    0.26156
       3543     59.661     65.756      2.743   0.008757    0.26056
     3542.9     61.491     66.295     2.7586    0.00918    0.26014
     3542.8     63.898     66.859     2.7606   0.010514    0.26147
     3542.7     66.271     67.394      2.752   0.012103    0.26565
     3542.6     68.136     67.886     2.7416   0.013186    0.27211
     3542.5     68.819     68.371     2.7354   0.013183    0.27971
     3542.4     71.554     68.561     2.7354   0.012499    0.28672
     3542.3     78.347     68.339      2.739   0.012123     0.2926
     3542.2     86.501     67.949      2.742   0.012781    0.29737
     3542.1     94.511     67.895     2.7407   0.014281    0.30243
       3542     101.49     68.285     2.7341    0.01599    0.30928
     3541.9     104.32      68.55     2.7238   0.017451    0.31776
     3541.8     104.28     68.618     2.7127   0.019165    0.32503
     3541.7     104.84     68.665     2.7029   0.021954    0.32871
     3541.6     105.46     68.325     2.6965   0.025793    0.32868
     3541.5     105.95     67.657      2.694   0.030323    0.32517
     3541.4     107.19     67.187     2.6942   0.034581     0.3191
     3541.3     109.11     67.067     2.6954   0.037605    0.31213
     3541.2     111.29      67.45     2.6963   0.038945    0.30279
     3541.1     113.04     68.404     2.6965   0.038863    0.28871
       3541     113.59     69.612     2.6961   0.037629    0.27007
     3540.9     110.95     70.621     2.6961   0.035785    0.24847
     3540.8     103.71     71.106     2.6972    0.03433    0.22797
     3540.7     94.574     71.288     2.6984   0.033069    0.21213
     3540.6     85.865     71.229     2.6984     0.0314    0.20336
     3540.5      77.58      70.68     2.6961   0.029177    0.20033
     3540.4     70.786      69.84     2.6915   0.026164    0.20115
     3540.3     66.771     69.173      2.685   0.022416    0.20512
     3540.2     63.918     68.908     2.6784   0.018822     0.2115
     3540.1     63.394     69.007     2.6718    0.01447    0.22109
       3540     67.675     69.245     2.6538  -0.002649    0.23445
     3539.9     74.169     69.229     2.5989  -0.056911    0.24943
     3539.8     80.675     69.052     2.4822   -0.16885    0.26465
     3539.7     86.502     69.084     2.3098   -0.32617    0.27794
     3539.6     92.345     69.407     2.1541   -0.45639    0.28709
     3539.5     97.317      70.51     2.0852   -0.49791    0.29058
     3539.4     99.481     73.345     2.1353   -0.43235    0.28898
     3539.3     99.877     78.252     2.2752   -0.29252    0.28666
     3539.2     97.777     84.811     2.4423   -0.13759    0.29018
     3539.1      90.94     92.113     2.5543  -0.031994    0.30687
       3539     81.995     99.705     2.5633   0.017204    0.33849
     3538.9     73.486     107.04     2.4488   0.029488      0.381
     3538.8     65.168     113.23     2.2231   0.020835    0.42615
     3538.7     58.291     117.77     1.9653   0.008943    0.46486
     3538.6     53.868      120.7     1.7551    0.00188    0.49033
     3538.5     50.553     122.69     1.6139  -0.000159    0.50117
     3538.4      48.17     124.26     1.5322   0.000375    0.50227
     3538.3     46.908     125.61     1.4922   0.001446    0.49947
     3538.2     45.128     127.16     1.4728   0.001909    0.49658
     3538.1     42.418     128.75     1.4547     0.0011    0.49612
       3538     39.761     129.56     1.4307  -0.001127    0.49909
     3537.9     37.625     128.83     1.4022  -0.004248    0.50519
     3537.8     36.886     126.27     1.3812  -0.007118     0.5119
     3537.7     39.195     121.77     1.3859  -0.008856     0.5141
     3537.6      46.18     115.29     1.4343  -0.009219    0.50473
     3537.5     58.226     107.59     1.5391   -0.00844    0.47936
     3537.4     74.174     99.605      1.708  -0.006678    0.43913
     3537.3     90.735      92.62     1.9262  -0.004018    0.39203
     3537.2     103.74     88.351     2.1487  -0.000959    0.35145
     3537.1     111.92       87.5     2.3404   0.002028    0.32585
       3537     116.04     88.999     2.4799   0.005154     0.3185
     3536.9      117.6     90.882     2.5596    0.00979    0.32698
     3536.8     117.06     91.835     2.5793   0.017453    0.34611
     3536.7      115.1     91.287     2.5571   0.027794    0.36704
     3536.6     112.36      89.89     2.5197    0.03974    0.38338
     3536.5     109.52     88.637     2.4865   0.052245     0.3924
     3536.4     107.31     88.158     2.4719   0.064035    0.39326
     3536.3     105.22     89.008     2.4753   0.074333    0.38686
     3536.2     101.47     91.715     2.4823   0.080967    0.37562
     3536.1     94.707     95.808     2.4664   0.080197    0.36464
