~Version ---------------------------------------------------
VERS.     2.0 : CWLS log ASCII Standard -VERSION 2.0
WRAP.      NO : ONE LINE PER DEPTH STEP
~Well ------------------------------------------------------
STRT.M                       3986.9004 : First Index Value
STOP.M                       3374.9004 : Last Index Value
STEP.M            -0.09999999999990905 : Frame Spacing
NULL.                          -999.25 : Absent Value
WELL.                        D12-03-S1 : Well Name
FLD .     FINDER_composites_22-02-2005 : Field Name
CNTY.                                  : County
STAT.                                  : State
CTRY.                                  : Country
LOC .                                  : Location
API .                                  : API Number
DATE.                                  : Date
COMP.                              PEN : Company Name
SRVC.                                  : Service Company
~Curves ----------------------------------------------------
DEPT.M         : 
GR  .GAPI      : 
DT  .US/F      : 
RHOB.G/C3      : 
DRHO.G/C3      : 
NPHI.V/V       : 
~Params ----------------------------------------------------
TDL .M            3999.0 : Total Depth (Logger)
TDD .M            3999.0 : Total Depth (Driller)
UBID.               7657 : Unique Borehole Id
PDAT.     Mean Sea Level : Permanent Datum
EPD .M               0.0 : Elevation of Permanent Datum (PDAT) above Mean Sea Level
LMF .       Rotary Table : Logging Measured From (Name of Logging Elevation Reference)
APD .M              34.2 : Elevation of Depth Reference (LMF) Above Permanent Datum
~Other -----------------------------------------------------
~ASCII -----------------------------------------------------
# ...
       3620     31.182     77.993     2.4793   0.014218    0.21318
     3619.9     32.491     78.261     2.5082   0.014184    0.21104
     3619.8     34.026     77.462     2.5575   0.014918     0.2109
     3619.7     36.565     75.534     2.6207   0.015771    0.21237
     3619.6     40.398     72.659      2.686   0.015363    0.21552
     3619.5     45.553     69.368     2.7409   0.013684    0.22073
     3619.4     51.198     66.437     2.7736   0.011573    0.22794
     3619.3     56.011     64.343     2.7806   0.009282    0.23651
     3619.2     59.449     63.304     2.7648   0.007558    0.24457
     3619.1     62.122      63.16     2.7361   0.006941    0.25077
       3619     64.958     63.499     2.7063   0.007005    0.25545
     3618.9     68.189     64.089     2.6856   0.008019    0.25853
     3618.8      70.97     64.708     2.6766   0.010721    0.25978
     3618.7      72.14     65.058      2.675    0.01531    0.25969
     3618.6     72.263     65.035     2.6745    0.02019    0.25972
     3618.5     73.157     64.806     2.6709   0.023277     0.2616
     3618.4     76.099      64.63     2.6642   0.023397    0.26614
     3618.3     81.343     64.698     2.6562    0.02008    0.27163
     3618.2     87.095     65.025     2.6478   0.014292    0.27522
     3618.1     89.534     65.491     2.6382    0.00839    0.27461
       3618     86.372     66.174     2.6231   0.004416    0.26899
     3617.9     78.276     67.337     2.5989    0.00259    0.25997
     3617.8     67.288     69.228     2.5667   0.002127    0.25107
     3617.7     55.898     71.626     2.5316    0.00213    0.24379
     3617.6     46.433     73.877     2.5005   0.002117    0.23777
     3617.5     40.098     75.379     2.4797   0.002158    0.23256
     3617.4     36.958     75.775     2.4702   0.002447     0.2278
     3617.3     36.106     75.139     2.4685   0.002982    0.22372
     3617.2     35.551     73.853      2.469   0.003614    0.22135
     3617.1     34.459     72.648     2.4667   0.003892    0.22091
       3617     33.281     72.177     2.4598   0.003486    0.22184
     3616.9     32.459     72.826     2.4485   0.002387    0.22377
     3616.8     32.198     74.393     2.4344   0.000917    0.22603
     3616.7     32.338     76.276       2.42  -0.000552    0.22776
     3616.6     31.871     77.998     2.4057  -0.001912    0.22776
     3616.5     30.481     79.477     2.3924  -0.002709    0.22545
     3616.4     28.804     80.928     2.3808  -0.002541     0.2214
     3616.3     27.344     82.272     2.3718  -0.000986    0.21552
     3616.2     26.356     83.312     2.3667   0.001681    0.20869
     3616.1     25.745     84.113      2.365   0.004668    0.20229
       3616     24.734     84.799     2.3657   0.006636    0.19767
     3615.9     23.344     85.245     2.3685   0.006826    0.19561
     3615.8     22.509     85.235     2.3737   0.005826    0.19546
     3615.7     22.641      84.56     2.3836    0.00427    0.19662
     3615.6     23.789     83.253     2.3981   0.003044    0.19837
     3615.5     26.224     81.425     2.4152   0.002896    0.20036
     3615.4     29.589     79.635     2.4281   0.003903      0.203
     3615.3     32.851     78.559     2.4304   0.005302    0.20679
     3615.2     35.342     78.424     2.4222   0.006381    0.21185
     3615.1     35.881     79.047      2.406     0.0068    0.21701
       3615     34.148     80.094     2.3875   0.006647    0.22082
     3614.9     31.325     81.834     2.3713   0.006013    0.22249
     3614.8     27.763     84.024     2.3608   0.005255    0.22179
     3614.7     23.603     85.772     2.3561   0.004706    0.21959
     3614.6     20.592     86.707      2.354   0.003676    0.21702
     3614.5     19.767     86.867     2.3537   0.001926    0.21443
     3614.4     20.149     86.688     2.3561   0.000186    0.21134
     3614.3      21.21     86.079     2.3622  -0.000751    0.20723
     3614.2     22.495     84.859     2.3735   -0.00047    0.20194
     3614.1     23.193     83.254     2.3899   0.000834    0.19632
       3614     23.138     81.648     2.4076   0.002714    0.19181
     3613.9     22.769     80.113     2.4227   0.004596    0.19015
     3613.8     22.805     78.589     2.4318   0.005606    0.19265
     3613.7      23.18     77.419     2.4355   0.005797    0.19784
     3613.6     23.504     76.864     2.4361   0.005461    0.20364
     3613.5     23.628     76.585     2.4366   0.004484    0.20841
     3613.4     23.271     76.345     2.4389   0.003134    0.21079
     3613.3     22.541     76.157     2.4434   0.002041    0.21009
     3613.2     22.441     76.053     2.4482   0.001873    0.20757
     3613.1      22.65     76.048     2.4504   0.002717    0.20435
       3613     22.267      76.18     2.4474    0.00412    0.20083
     3612.9     22.276     76.536     2.4392   0.005391    0.19741
     3612.8      22.68     77.254     2.4286   0.006428    0.19443
     3612.7     22.233     78.407     2.4201   0.007592    0.19269
     3612.6     21.581     79.719     2.4178   0.009042     0.1926
     3612.5     21.544     80.822     2.4227   0.010557      0.194
     3612.4      21.76     81.422     2.4334   0.011579    0.19648
     3612.3     21.793     81.517     2.4452   0.011724    0.19972
     3612.2       21.9     81.135     2.4541      0.011    0.20393
     3612.1     22.575     80.238     2.4585   0.009702    0.20952
       3612     22.964     79.164     2.4587   0.008173    0.21646
     3611.9     22.311     78.259     2.4561   0.006529    0.22377
     3611.8     21.338     77.605     2.4517   0.004711    0.22986
     3611.7     20.545     77.305     2.4454   0.002589    0.23407
     3611.6     19.875     77.522     2.4364   0.000219    0.23629
     3611.5     19.467      78.25     2.4252  -0.002105    0.23622
     3611.4     19.684     79.238     2.4134  -0.004216    0.23399
     3611.3     20.421     80.341     2.4034  -0.006062    0.22945
     3611.2      20.92     81.617     2.3974  -0.007487    0.22253
     3611.1     21.272     82.842     2.3971  -0.008083    0.21429
       3611     21.943     83.534     2.4028  -0.007233    0.20649
     3610.9     22.478     83.523      2.414  -0.004776    0.20002
     3610.8     22.926     82.913     2.4301   -0.00136    0.19532
     3610.7     23.783     81.897     2.4521   0.001861    0.19267
     3610.6     24.816     80.585     2.4815   0.004044    0.19195
     3610.5     25.895     78.918     2.5178   0.004899    0.19326
     3610.4     27.928     76.751     2.5581   0.004714    0.19679
     3610.3     32.205      74.14     2.5969   0.004097    0.20189
     3610.2     38.777     71.301     2.6263   0.003445    0.20805
     3610.1     46.976     68.355     2.6428   0.002637    0.21563
       3610     55.891     65.677     2.6496   0.001571    0.22414
     3609.9     63.597     63.725     2.6532   0.000442    0.23237
     3609.8     68.828      62.66     2.6591  -0.000334     0.2396
     3609.7     72.267     62.311     2.6701  -0.000424    0.24527
     3609.6     74.596     62.333     2.6854    0.00036     0.2486
     3609.5     74.848     62.409     2.7008   0.001691    0.24941
     3609.4     71.986     62.356     2.7118    0.00267    0.24903
     3609.3     67.184      62.16     2.7158   0.002852    0.24884
     3609.2     62.973     61.882     2.7131   0.002616    0.24929
     3609.1     60.225     61.608     2.7081   0.002667    0.25032
       3609     59.245     61.405     2.7069    0.00359    0.25183
     3608.9      60.07     61.279     2.7144   0.005313    0.25372
     3608.8     61.392     61.157     2.7304   0.007056    0.25568
     3608.7     61.719     61.007     2.7503   0.007794    0.25682
     3608.6     61.136     60.812      2.767   0.007397    0.25598
     3608.5     61.358     60.485     2.7741   0.007013    0.25203
     3608.4     62.519     60.262     2.7659   0.007409     0.2451
     3608.3     63.589     60.468     2.7431   0.008294    0.23788
     3608.2     65.286      61.12     2.7126   0.009102     0.2353
     3608.1      70.16     62.088     2.6823   0.008848    0.24176
