~Version ---------------------------------------------------
VERS.     2.0 : CWLS log ASCII Standard -VERSION 2.0
WRAP.      NO : ONE LINE PER DEPTH STEP
~Well ------------------------------------------------------
STRT.M                       3986.9004 : First Index Value
STOP.M                       3374.9004 : Last Index Value
STEP.M            -0.09999999999990905 : Frame Spacing
NULL.                          -999.25 : Absent Value
WELL.                        D12-03-S1 : Well Name
FLD .     FINDER_composites_22-02-2005 : Field Name
CNTY.                                  : County
STAT.                                  : State
CTRY.                                  : Country
LOC .                                  : Location
API .                                  : API Number
DATE.                                  : Date
COMP.                              PEN : Company Name
SRVC.                                  : Service Company
~Curves ----------------------------------------------------
DEPT.M         : 
GR  .GAPI      : 
DT  .US/F      : 
RHOB.G/C3      : 
DRHO.G/C3      : 
NPHI.V/V       : 
~Params ----------------------------------------------------
TDL .M            3999.0 : Total Depth (Logger)
TDD .M            3999.0 : Total Depth (Driller)
UBID.               7657 : Unique Borehole Id
PDAT.     Mean Sea Level : Permanent Datum
EPD .M               0.0 : Elevation of Permanent Datum (PDAT) above Mean Sea Level
LMF .       Rotary Table : Logging Measured From (Name of Logging Elevation Reference)
APD .M              34.2 : Elevation of Depth Reference (LMF) Above Permanent Datum
~Other -----------------------------------------------------
~ASCII -----------------------------------------------------
# ...
       3512     89.277      66.67     2.4107    0.14749    0.27978
     3511.9     88.059     66.736     2.3992    0.12277    0.27488
     3511.8     86.682     66.327     2.4072   0.095431    0.27398
     3511.7     83.954     65.398     2.4367    0.06851    0.27386
     3511.6     80.353     64.271       2.49   0.052639     0.2697
     3511.5     76.996     63.221     2.5592   0.053846    0.26032
     3511.4     74.595     62.329     2.6267   0.069975    0.24848
     3511.3     72.381     61.848     2.6693   0.086274    0.23968
     3511.2     70.173     61.817     2.6848   0.091082     0.2348
     3511.1     68.936     62.041      2.685   0.082388    0.23106
       3511     67.753     62.414     2.6806   0.062374    0.22312
     3510.9     66.205     62.877     2.6789   0.038332    0.20866
     3510.8     65.545     63.343     2.6837   0.020065     0.1903
     3510.7     64.192     63.946     2.6906   0.010141    0.17324
     3510.6     61.354     64.807     2.6925    0.00611    0.16161
     3510.5     59.315     65.884     2.6868    0.00456    0.15525
     3510.4     58.283     67.055     2.6734   0.004543    0.15182
     3510.3       58.3     68.042     2.6562   0.006076    0.14941
     3510.2     61.689     68.622     2.6411   0.008754    0.14796
     3510.1     66.431     68.641     2.6323    0.01188    0.14859
       3510     68.707     68.165     2.6325   0.014477    0.15231
     3509.9     70.028      67.44     2.6404   0.016364    0.15991
     3509.8     70.213      66.67     2.6526   0.016763    0.17178
     3509.7     68.033     66.006     2.6628   0.015205    0.18607
     3509.6     65.903     65.403     2.6685   0.012473    0.20193
     3509.5     66.098     64.865     2.6687   0.009722    0.21684
     3509.4     68.447       64.4     2.6659   0.007936    0.22798
     3509.3     72.957     63.975     2.6634   0.007522    0.23456
     3509.2     78.863     63.561     2.6633   0.008564    0.23564
     3509.1      83.47     63.184     2.6647   0.010154    0.23223
       3509     86.528     62.878      2.667   0.011353    0.22581
     3508.9     87.437     62.762     2.6697   0.011198     0.2184
     3508.8     85.708     62.917     2.6718   0.009514    0.21188
     3508.7     82.816     63.386      2.673   0.006728    0.20707
     3508.6     80.614     64.079     2.6727   0.003704    0.20434
     3508.5     78.928     64.709     2.6715   0.001304    0.20321
     3508.4     77.752       65.1      2.671   -7.5e-05    0.20263
     3508.3     78.029     65.206     2.6737  -0.000475    0.20122
     3508.2     80.719     65.104     2.6817   -0.00042    0.19843
     3508.1     85.508     64.853     2.6948     -1e-06    0.19506
       3508      90.92     64.484     2.7112     0.0011    0.19284
     3507.9     95.069     64.074     2.7257   0.002958     0.1932
     3507.8      96.35     63.731     2.7331   0.005185    0.19667
     3507.7     94.078     63.562     2.7296   0.007115     0.2028
     3507.6     89.805     63.567     2.7177   0.008354    0.20971
     3507.5      85.91     63.622     2.7033   0.009126     0.2154
     3507.4     83.991      63.62     2.6927   0.010461    0.21903
     3507.3     83.925     63.653     2.6904   0.013574    0.22109
     3507.2     84.391     63.584     2.6967   0.018526    0.22232
     3507.1     84.306     63.097     2.7076   0.023431    0.22308
       3507     83.723      62.59     2.7166   0.025034    0.22371
     3506.9     83.167       62.6     2.7206   0.022085    0.22437
     3506.8     82.742     62.993     2.7228   0.017405    0.22502
     3506.7     82.922     63.326     2.7297   0.015968    0.22544
     3506.6     83.931     63.619     2.7466   0.022656    0.22532
     3506.5     85.192     64.328     2.7728   0.039909    0.22441
     3506.4     86.368      65.15     2.7978   0.062782    0.22288
     3506.3     87.511     65.333     2.8072   0.081884    0.22149
     3506.2     88.672     64.848     2.7913   0.088247    0.22144
     3506.1     90.963     64.275     2.7509   0.078852    0.22372
       3506     95.222     64.191     2.6953   0.057733    0.22887
     3505.9     100.02      64.69     2.6387   0.033171    0.23672
     3505.8     104.17      65.52     2.5929   0.013349    0.24602
     3505.7     107.66     66.363     2.5635   0.002465    0.25522
     3505.6     110.19     66.945     2.5506   0.002163    0.26339
     3505.5     111.54     67.169     2.5523    0.01417    0.26997
     3505.4      111.6     66.965     2.5693   0.041859    0.27433
     3505.3     110.25      66.24     2.5974   0.083065    0.27676
     3505.2     106.85     65.296     2.6277    0.12832    0.27775
     3505.1     100.92     64.921       2.65    0.16414     0.2766
       3505     93.857     65.994     2.6568    0.17997     0.2723
     3504.9     87.831     69.326     2.6481    0.17398    0.26453
     3504.8      83.99     75.281     2.6244    0.15098    0.25475
     3504.7     81.997     83.045     2.5796    0.11941    0.24765
     3504.6     80.288      91.31     2.4983   0.085197    0.25295
     3504.5     77.542     99.015     2.3726   0.052628     0.2806
     3504.4     73.484     105.85     2.2162   0.025704    0.33139
     3504.3     67.853     111.68     2.0529   0.007385     0.3986
     3504.2     60.401     116.25     1.9015  -0.002265    0.47094
     3504.1     52.406     119.64       1.77  -0.007103    0.53439
       3504     44.901      122.1     1.6621  -0.010522    0.57494
     3503.9     37.869     124.09      1.574  -0.014449    0.58861
     3503.8      32.24     125.52     1.5021   -0.01944    0.58344
     3503.7     28.861     126.09     1.4479  -0.024859    0.57024
     3503.6     27.373     125.76     1.4087  -0.029986    0.55642
     3503.5     27.616     124.45     1.3821  -0.034153    0.54544
     3503.4     29.886     122.53     1.3671  -0.037123    0.53609
     3503.3     34.196     120.84     1.3639  -0.038883    0.52533
     3503.2     40.262     119.67     1.3772   -0.03891    0.51163
     3503.1     46.597     118.64     1.4114  -0.036522    0.49491
       3503     50.981     117.18     1.4601  -0.031956    0.47855
     3502.9     53.004     114.77     1.5084   -0.02617    0.46927
     3502.8     54.806     111.18     1.5468  -0.020083    0.46825
     3502.7     58.588      106.7      1.575   -0.01465    0.47001
     3502.6     65.424     101.13      1.603  -0.010279     0.4689
     3502.5     74.671     94.976     1.6491  -0.006417    0.46233
     3502.4     84.397     89.425     1.7235  -0.002092    0.45127
     3502.3     91.228      85.24     1.8295   0.004103    0.43855
     3502.2     95.429     82.668     1.9544   0.013536    0.42678
     3502.1     100.37      81.31     2.0826   0.026524     0.4162
       3502     104.86     81.072     2.2028   0.042116    0.40351
     3501.9     107.19     81.206        2.3   0.056293    0.38744
     3501.8     108.43     80.646     2.3692   0.065821    0.36948
     3501.7     105.23     79.794     2.4082   0.066871    0.35383
     3501.6      98.06      79.33     2.4234   0.058161    0.34315
     3501.5     91.641     79.218     2.4273   0.040723    0.33604
     3501.4     89.116      79.39     2.4398   0.022276     0.3293
     3501.3     90.371     79.773     2.4704   0.009824    0.32158
     3501.2      94.61     80.258     2.5169   0.005013    0.31366
     3501.1     99.356     80.523     2.5576   0.007703    0.31274
       3501     102.76     80.363     2.5748   0.014684    0.32178
     3500.9     105.08     79.769     2.5654   0.022368      0.338
     3500.8     106.28     78.201     2.5437   0.029044    0.35149
     3500.7     106.39     75.598     2.5281   0.034284    0.35481
     3500.6     105.55     72.768     2.5316   0.036573    0.34403
     3500.5     103.35     70.316     2.5613   0.034677    0.32092
     3500.4     99.761     68.297     2.6128    0.02914    0.29183
     3500.3     95.729     66.855     2.6727   0.021181     0.2646
     3500.2     93.523     65.986     2.7269   0.014096    0.24598
     3500.1      93.73     65.406     2.7699   0.010091    0.23615
