~Version ---------------------------------------------------
VERS.     2.0 : CWLS log ASCII Standard -VERSION 2.0
WRAP.      NO : ONE LINE PER DEPTH STEP
~Well ------------------------------------------------------
STRT.M                       3986.9004 : First Index Value
STOP.M                       3374.9004 : Last Index Value
STEP.M            -0.09999999999990905 : Frame Spacing
NULL.                          -999.25 : Absent Value
WELL.                        D12-03-S1 : Well Name
FLD .     FINDER_composites_22-02-2005 : Field Name
CNTY.                                  : County
STAT.                                  : State
CTRY.                                  : Country
LOC .                                  : Location
API .                                  : API Number
DATE.                                  : Date
COMP.                              PEN : Company Name
SRVC.                                  : Service Company
~Curves ----------------------------------------------------
DEPT.M         : 
GR  .GAPI      : 
DT  .US/F      : 
RHOB.G/C3      : 
DRHO.G/C3      : 
NPHI.V/V       : 
~Params ----------------------------------------------------
TDL .M            3999.0 : Total Depth (Logger)
TDD .M            3999.0 : Total Depth (Driller)
UBID.               7657 : Unique Borehole Id
PDAT.     Mean Sea Level : Permanent Datum
EPD .M               0.0 : Elevation of Permanent Datum (PDAT) above Mean Sea Level
LMF .       Rotary Table : Logging Measured From (Name of Logging Elevation Reference)
APD .M              34.2 : Elevation of Depth Reference (LMF) Above Permanent Datum
~Other -----------------------------------------------------
~ASCII -----------------------------------------------------
# ...
       3428     21.078     75.577     1.5506  -0.029019    0.52021
     3427.9     20.796     75.586     1.5508  -0.028808     0.5108
     3427.8      21.64     73.911      1.562  -0.026561    0.49941
     3427.7     23.841     73.019     1.5911  -0.021135    0.49052
     3427.6     25.999     73.596     1.6404  -0.012882    0.48498
     3427.5     27.754      73.95      1.704  -0.004127    0.48027
     3427.4     28.925     72.874     1.7689    0.00264     0.4731
     3427.3     27.811     70.799     1.8129   0.004603    0.46108
     3427.2     25.361     68.501     1.8185   0.000727    0.44546
     3427.1     23.559     66.515     1.7881  -0.007071    0.42998
       3427     22.627     65.171     1.7402  -0.015156    0.41778
     3426.9     23.194      65.43      1.697  -0.020731    0.41155
     3426.8     25.561     67.428     1.6731  -0.022925    0.41161
     3426.7     28.088      69.03     1.6703  -0.022588    0.41424
     3426.6     29.849     69.563     1.6835  -0.020467    0.41099
     3426.5     31.118      69.88     1.7045  -0.017065    0.39631
     3426.4     32.638     70.099     1.7308  -0.012162    0.36824
     3426.3     34.487     69.935      1.763  -0.006086    0.32803
     3426.2     36.114     69.392     1.7999    3.2e-05    0.28154
     3426.1     36.878     68.819     1.8392   0.005097     0.2335
       3426     36.678     68.356       1.87   0.007696    0.19122
     3425.9     36.227     67.795      1.884   0.007707    0.15727
     3425.8     36.279     67.345     1.8813   0.006135    0.12866
     3425.7     37.426     67.519     1.8709   0.004443    0.10258
     3425.6     39.614     68.501     1.8657   0.003535   0.076681
     3425.5     41.923     69.211     1.8782   0.004005    0.05244
     3425.4     43.349     68.928     1.9132   0.005847   0.035054
     3425.3     44.301     68.826      1.962   0.008166   0.024588
     3425.2      46.01     70.225     2.0117    0.00914   0.020398
     3425.1      49.47     72.533     2.0516   0.007635   0.019284
       3425      53.84     72.413      2.084   0.005272   0.018036
     3424.9     58.467     69.986     2.1153   0.004256   0.016316
     3424.8     62.269     68.183     2.1494   0.006013   0.015334
     3424.7     64.575      67.49     2.1877   0.009253   0.015346
     3424.6     65.486     67.369     2.2261   0.011814    0.01616
     3424.5     66.346     67.053     2.2616   0.011879   0.017281
     3424.4     68.041     66.566     2.2966   0.009799   0.018598
     3424.3     70.688     66.198     2.3349   0.007254    0.02106
     3424.2     73.828     66.059     2.3791   0.006289   0.026214
     3424.1     76.805     66.042     2.4237   0.007085   0.034184
       3424     78.669     66.085     2.4596   0.008818   0.044068
     3423.9     78.616     66.216     2.4829   0.010445   0.054458
     3423.8     76.877     66.327     2.4942   0.011364   0.063533
     3423.7     74.716      66.31     2.4961   0.011484   0.070091
     3423.6     73.994     66.216     2.4929   0.010985   0.073743
     3423.5     74.876     66.147      2.488   0.009847   0.074669
     3423.4     76.637     66.096     2.4824   0.007792   0.073059
     3423.3     78.714     65.869     2.4766   0.004921   0.069355
     3423.2     79.662     65.285      2.472   0.001861   0.064008
     3423.1     78.679     64.405     2.4701   -0.00067   0.057218
       3423      77.35     63.688     2.4714  -0.001818   0.050436
     3422.9     76.446     63.369     2.4752  -0.001151    0.04527
     3422.8     75.083     63.348     2.4803   0.001209   0.042591
     3422.7      73.38     63.578     2.4856   0.004331   0.042675
     3422.6     72.758     63.857     2.4904    0.00715   0.044823
     3422.5     74.578     63.906     2.4945   0.009026   0.047823
     3422.4     77.827     63.759     2.4976   0.009873   0.050364
     3422.3     80.846      63.65     2.4994   0.010006   0.052205
     3422.2     82.709      63.71     2.4994   0.009621   0.053793
     3422.1     82.647     63.883     2.4982   0.009095    0.05536
       3422     81.592     64.039     2.4969   0.008679   0.057123
     3421.9     81.899     64.143     2.4963   0.008366   0.059191
     3421.8     84.779     64.218      2.497   0.008027   0.061052
     3421.7     88.985     64.302     2.4987    0.00754    0.06222
     3421.6     92.067     64.428     2.5007   0.006907   0.062834
     3421.5     92.518     64.653      2.502    0.00623   0.063242
     3421.4     90.294     64.922     2.5018   0.005947   0.063744
     3421.3     86.075     65.195     2.4992   0.006828   0.064515
     3421.2     81.702     65.697     2.4922   0.009442   0.065692
     3421.1     78.432     66.341     2.4785   0.013844   0.067638
       3421       76.2     66.519     2.4569   0.019232   0.070992
     3420.9     74.543     66.255     2.4292   0.023823   0.075913
     3420.8     72.834     65.989     2.3998   0.025619   0.081265
     3420.7     70.436     65.673     2.3739   0.023868    0.08481
     3420.6     68.147     65.124     2.3564   0.019869   0.084581
     3420.5     66.924     64.556       2.35   0.016234   0.080098
     3420.4     66.493     64.388     2.3523   0.015377   0.072806
     3420.3     67.639     64.337     2.3567   0.018569   0.065033
     3420.2     70.469     64.025      2.357   0.026025   0.058651
     3420.1     72.546     63.838     2.3501   0.037135   0.054475
       3420      72.61     63.957     2.3358   0.049619   0.052779
     3419.9     70.993     64.097     2.3163   0.060461   0.053627
     3419.8     68.176     64.091     2.2964   0.067487   0.056339
     3419.7      66.05     64.027     2.2832   0.069678   0.059453
     3419.6     66.138     64.013     2.2813   0.066396   0.061182
     3419.5      67.66     63.995     2.2904   0.057687    0.06012
     3419.4      69.43     64.038     2.3109   0.045908   0.055937
     3419.3     71.009     64.321     2.3438   0.034028   0.049309
     3419.2      72.22     64.848     2.3831   0.024155   0.042004
     3419.1     73.466      65.46     2.4227   0.017651   0.036307
       3419      74.78     65.952     2.4562   0.014773    0.03416
     3418.9     75.371      66.23     2.4776   0.014172   0.036093
     3418.8     74.805     66.367     2.4813   0.013903   0.042323
     3418.7     73.524     66.508     2.4675   0.012786   0.051909
     3418.6     72.199     66.724     2.4439   0.010878   0.062832
     3418.5     71.004     66.731     2.4191   0.008531   0.072917
     3418.4     70.116     66.431     2.4017   0.006199   0.079777
     3418.3     70.012     66.199     2.3974    0.00437   0.081831
     3418.2       70.8     65.951     2.4081   0.003075   0.078177
     3418.1     72.599     65.473     2.4293   0.002073   0.070297
       3418     76.342     64.993      2.454   0.001205    0.06105
     3417.9     80.234     64.734     2.4743   0.000847   0.054313
     3417.8      82.06     64.652      2.487   0.001438   0.051663
     3417.7     81.751     64.652     2.4946   0.003454   0.052306
     3417.6     80.501     64.712     2.5002   0.006803   0.054416
     3417.5     79.373     64.804     2.5056   0.010601    0.05657
     3417.4     78.953     64.831     2.5112   0.013598    0.05857
     3417.3     79.731     64.778     2.5152   0.014402   0.060225
     3417.2     81.405     64.701     2.5171   0.012963   0.061378
     3417.1     81.954     64.645     2.5175   0.010375   0.061829
       3417     81.394     64.613      2.517   0.007932   0.061995
     3416.9     81.181     64.597     2.5157   0.006181   0.062476
     3416.8      81.71     64.626     2.5141   0.005324   0.063504
     3416.7      82.39     64.619     2.5129   0.005298   0.064972
     3416.6      82.78     64.476     2.5126   0.005867   0.066613
     3416.5     83.188     64.281     2.5133   0.006968   0.066765
     3416.4     83.264     64.139     2.5149   0.008782   0.064753
     3416.3      82.29     64.076     2.5169   0.011377    0.06135
     3416.2      81.56     64.003     2.5197   0.014904   0.058003
     3416.1      81.58     63.867     2.5238   0.019426    0.05591
