~Version ---------------------------------------------------
VERS.     2.0 : CWLS log ASCII Standard -VERSION 2.0
WRAP.      NO : ONE LINE PER DEPTH STEP
~Well ------------------------------------------------------
STRT.M                       3986.9004 : First Index Value
STOP.M                       3374.9004 : Last Index Value
STEP.M            -0.09999999999990905 : Frame Spacing
NULL.                          -999.25 : Absent Value
WELL.                        D12-03-S1 : Well Name
FLD .     FINDER_composites_22-02-2005 : Field Name
CNTY.                                  : County
STAT.                                  : State
CTRY.                                  : Country
LOC .                                  : Location
API .                                  : API Number
DATE.                                  : Date
COMP.                              PEN : Company Name
SRVC.                                  : Service Company
~Curves ----------------------------------------------------
DEPT.M         : 
GR  .GAPI      : 
DT  .US/F      : 
RHOB.G/C3      : 
DRHO.G/C3      : 
NPHI.V/V       : 
~Params ----------------------------------------------------
TDL .M            3999.0 : Total Depth (Logger)
TDD .M            3999.0 : Total Depth (Driller)
UBID.               7657 : Unique Borehole Id
PDAT.     Mean Sea Level : Permanent Datum
EPD .M               0.0 : Elevation of Permanent Datum (PDAT) above Mean Sea Level
LMF .       Rotary Table : Logging Measured From (Name of Logging Elevation Reference)
APD .M              34.2 : Elevation of Depth Reference (LMF) Above Permanent Datum
~Other -----------------------------------------------------
~ASCII -----------------------------------------------------
# ...
       3704     122.19     71.341     2.5972   0.001762    0.31857
     3703.9     119.39     70.714     2.5985   0.001381    0.32244
     3703.8      116.1     69.768     2.5984   0.000335    0.32277
     3703.7     112.95     68.552     2.5971  -0.001078     0.3202
     3703.6     108.71     67.123     2.5951  -0.002469    0.31637
     3703.5     102.73     65.616     2.5941  -0.003376     0.3115
     3703.4     95.964     64.255     2.5961  -0.003706    0.30492
     3703.3     88.964     63.247     2.6044  -0.004002    0.29707
     3703.2      83.79     62.694      2.622  -0.004284    0.28985
     3703.1     82.727      62.53     2.6493  -0.003977    0.28474
       3703     86.423      62.81     2.6805  -0.002622    0.28273
     3702.9     93.307     63.475     2.7067   -8.3e-05    0.28438
     3702.8     101.14      64.31     2.7229   0.003351    0.28947
     3702.7     108.14     65.147      2.725    0.00643    0.29715
     3702.6     113.99     65.964     2.7164   0.008055    0.30574
     3702.5     119.49      66.95     2.7033   0.008059    0.31385
     3702.4     125.23     68.877     2.6809    0.00654    0.32119
     3702.3     131.56     72.115     2.6343   0.003973    0.32884
     3702.2     138.26     76.374     2.5538    0.00101    0.33836
     3702.1     139.32      80.59     2.4485  -0.001039    0.35235
       3702     131.33     84.235     2.3416  -0.001153    0.37363
     3701.9     117.34     87.294     2.2583   0.000702     0.4012
     3701.8     97.522      89.23     2.2193   0.003072    0.42429
     3701.7     74.611     89.683      2.221   0.004921    0.43308
     3701.6     54.997      88.71     2.2483   0.006189    0.42423
     3701.5     41.936     86.802     2.2811    0.00659    0.39485
     3701.4      33.79      84.81     2.3076   0.006226    0.35068
     3701.3      28.96     83.588     2.3244   0.005606    0.30489
     3701.2     26.316     83.279      2.332    0.00507    0.26755
     3701.1     25.088     83.586     2.3324   0.004656    0.24249
       3701     24.817     84.205     2.3283   0.004224    0.22732
     3700.9     24.941     84.986     2.3234   0.003632    0.21938
     3700.8     25.085     85.684     2.3222   0.002786    0.21692
     3700.7     25.343      85.97     2.3276   0.001578    0.21877
     3700.6     25.498     85.586      2.342   0.000289    0.22442
     3700.5     25.544     84.654     2.3632  -0.000538    0.23242
     3700.4     26.234      83.51     2.3878  -0.000623    0.24182
     3700.3     28.132     82.132     2.4112    3.8e-05    0.25129
     3700.2     30.787     80.466     2.4303   0.001083    0.25898
     3700.1       33.2     78.723     2.4466   0.002216    0.26281
       3700     34.698     77.386     2.4599   0.002894    0.26103
     3699.9     35.302     76.669     2.4689   0.002822    0.25496
     3699.8     34.684     76.311      2.471   0.002335    0.24682
     3699.7     33.016     76.469      2.462   0.002124    0.24049
     3699.6     31.349     77.402     2.4431   0.002619    0.23903
     3699.5     30.353     79.021      2.417    0.00358    0.24346
     3699.4     30.395      80.92      2.391   0.004832    0.25297
     3699.3     31.167      82.73     2.3707   0.006516    0.26465
     3699.2     32.162     83.921     2.3606   0.008422    0.27473
     3699.1     33.044     84.181     2.3637   0.010085    0.27944
       3699     33.885     83.956      2.376    0.01125    0.27864
     3698.9     33.826     83.445     2.3935   0.011479    0.27425
     3698.8      32.56       82.7     2.4107   0.010568    0.26971
     3698.7     31.597     81.786     2.4251   0.009188     0.2674
     3698.6     30.631     80.851     2.4364   0.007788    0.26788
     3698.5     29.187     79.976     2.4468   0.006613    0.26988
     3698.4     29.028     79.039     2.4592   0.005832    0.27092
     3698.3     30.967     77.863     2.4747   0.005524    0.26923
     3698.2      34.89     76.297      2.494   0.005715    0.26402
     3698.1      40.62     74.605      2.514    0.00643    0.25642
       3698     47.242     73.003     2.5319   0.007661    0.24761
     3697.9      53.18     71.595      2.547   0.009196    0.23859
     3697.8      57.32     70.706     2.5596   0.010498    0.23136
     3697.7     59.234     70.404     2.5705   0.011305    0.22793
     3697.6     59.752     70.242     2.5821   0.011768    0.22869
     3697.5     60.827     69.811     2.5954   0.011786    0.23154
     3697.4     64.008     68.949     2.6116   0.011236    0.23395
     3697.3     69.456       67.8     2.6309   0.010305    0.23415
     3697.2     75.994      66.78     2.6511   0.009384     0.2326
     3697.1     82.139     66.284     2.6691   0.009055    0.23169
       3697     86.133     66.629     2.6782   0.010028    0.23428
     3696.9     87.601      67.81     2.6706   0.012063    0.24088
     3696.8     86.329      69.71      2.641   0.014205    0.25056
     3696.7     81.235     72.042      2.592   0.015355    0.26148
     3696.6     72.894     74.495      2.533   0.015185    0.27044
     3696.5     62.603     76.888     2.4733   0.014122    0.27484
     3696.4     51.493     79.074     2.4211   0.012783    0.27495
     3696.3     41.388     81.075     2.3797   0.011531     0.2728
     3696.2     34.261     82.844      2.351   0.010307    0.26995
     3696.1     29.994     84.175      2.335   0.008968    0.26768
       3696     27.642     84.905     2.3299   0.007523    0.26621
     3695.9      27.33     84.934      2.335   0.006407    0.26482
     3695.8     28.761       84.4     2.3465   0.006159    0.26269
     3695.7     31.183     83.663     2.3574   0.006783    0.26005
     3695.6     33.603     83.099     2.3615   0.007682    0.25805
     3695.5     34.777     83.013     2.3559   0.008202    0.25703
     3695.4     34.137      83.46     2.3423   0.007757    0.25695
     3695.3     32.097     84.263     2.3242   0.005977    0.25788
     3695.2     29.644     85.147      2.307   0.003098    0.25937
     3695.1     27.931     85.932     2.2952  -0.000211     0.2612
       3695     27.558     86.464     2.2908  -0.003172    0.26321
     3694.9     27.862     86.498     2.2925  -0.005175     0.2645
     3694.8     27.924     85.943     2.2987  -0.005946    0.26415
     3694.7     27.605     85.028     2.3092  -0.005573    0.26196
     3694.6     27.055     84.016     2.3237  -0.004705      0.258
     3694.5     26.631     82.928      2.342  -0.004017    0.25263
     3694.4     26.714     81.674     2.3641  -0.003773    0.24665
     3694.3     27.548     80.472     2.3877  -0.003882    0.24159
     3694.2     28.931     79.553     2.4088  -0.004115    0.23908
     3694.1     30.329     78.857      2.425  -0.004321     0.2396
       3694     31.373     78.445     2.4353  -0.004342    0.24217
     3693.9     32.166      78.36     2.4401  -0.004098    0.24457
     3693.8     32.942     78.411     2.4411  -0.003675    0.24463
     3693.7     33.673     78.429     2.4403  -0.003205    0.24217
     3693.6     34.669     78.366     2.4383  -0.002631    0.23829
     3693.5     36.022     78.274     2.4353  -0.001808     0.2344
     3693.4     36.277     78.325     2.4315  -0.000683    0.23237
     3693.3     35.104     78.614     2.4268   0.000877    0.23325
     3693.2     34.167     79.036     2.4215   0.002803    0.23646
     3693.1     33.694     79.488     2.4157   0.004444    0.24086
       3693     33.424     79.943     2.4092   0.004639    0.24477
     3692.9     33.861     80.392     2.4024   0.002814     0.2464
     3692.8     34.488     80.793     2.3974  -0.000473    0.24472
     3692.7     34.218         81     2.3975   -0.00373    0.24009
     3692.6     32.935     80.921     2.4039  -0.005576    0.23424
     3692.5     31.942      80.65     2.4159  -0.004567    0.22972
     3692.4      31.35     80.305     2.4296  -0.000718    0.22848
     3692.3     29.839     79.915     2.4401   0.004243    0.23052
     3692.2     28.418     79.639     2.4418   0.007807    0.23502
     3692.1     27.762     79.669     2.4334    0.00866     0.2397
