~Version ---------------------------------------------------
VERS.     2.0 : CWLS log ASCII Standard -VERSION 2.0
WRAP.      NO : ONE LINE PER DEPTH STEP
~Well ------------------------------------------------------
STRT.M                       3986.9004 : First Index Value
STOP.M                       3374.9004 : Last Index Value
STEP.M            -0.09999999999990905 : Frame Spacing
NULL.                          -999.25 : Absent Value
WELL.                        D12-03-S1 : Well Name
FLD .     FINDER_composites_22-02-2005 : Field Name
CNTY.                                  : County
STAT.                                  : State
CTRY.                                  : Country
LOC .                                  : Location
API .                                  : API Number
DATE.                                  : Date
COMP.                              PEN : Company Name
SRVC.                                  : Service Company
~Curves ----------------------------------------------------
DEPT.M         : 
GR  .GAPI      : 
DT  .US/F      : 
RHOB.G/C3      : 
DRHO.G/C3      : 
NPHI.V/V       : 
~Params ----------------------------------------------------
TDL .M            3999.0 : Total Depth (Logger)
TDD .M            3999.0 : Total Depth (Driller)
UBID.               7657 : Unique Borehole Id
PDAT.     Mean Sea Level : Permanent Datum
EPD .M               0.0 : Elevation of Permanent Datum (PDAT) above Mean Sea Level
LMF .       Rotary Table : Logging Measured From (Name of Logging Elevation Reference)
APD .M              34.2 : Elevation of Depth Reference (LMF) Above Permanent Datum
~Other -----------------------------------------------------
~ASCII -----------------------------------------------------
# ...
       3464     99.067     64.115     2.5087   0.030822    0.14558
     3463.9     98.483     63.474     2.5376   0.015889    0.13577
     3463.8     96.074     62.714     2.5693   0.008448    0.12002
     3463.7     92.626     62.154     2.5953   0.006562    0.10421
     3463.6     89.453     62.118     2.6091   0.006162   0.093332
     3463.5     86.628       62.4     2.6085    0.00547    0.08881
     3463.4     84.073     62.661     2.5971   0.004239   0.088449
     3463.3      81.72     62.739     2.5811   0.003541   0.088628
     3463.2     79.693     62.702     2.5657   0.004083   0.087686
     3463.1     78.053     62.602     2.5549   0.005723   0.084975
       3463      77.57     62.442     2.5507   0.007562   0.081129
     3462.9     78.977     62.239     2.5527   0.008629   0.077075
     3462.8     81.329     62.013     2.5584   0.008353    0.07344
     3462.7     83.547     61.778     2.5653   0.006843   0.070263
     3462.6     85.214     61.587     2.5716   0.004713   0.067375
     3462.5     84.913     61.544     2.5762   0.002841   0.065015
     3462.4     81.919     61.645     2.5778   0.001889    0.06397
     3462.3     77.726     61.748     2.5751    0.00203   0.064746
     3462.2      74.41     61.831     2.5676   0.002972   0.067093
     3462.1     73.123     61.914     2.5564   0.004295   0.070051
       3462     74.087     61.961     2.5431   0.005492   0.072262
     3461.9     77.094     62.021     2.5305   0.005869   0.072568
     3461.8     80.596     62.088      2.522   0.005048   0.070739
     3461.7     82.154     62.038     2.5201   0.003398   0.067612
     3461.6     81.387     61.845     2.5257   0.001557   0.063888
     3461.5     78.251     61.582     2.5379   0.000223    0.05967
     3461.4     72.626     61.325     2.5518     -2e-05   0.055103
     3461.3     67.131     61.119     2.5592   0.000854   0.050149
     3461.2     64.136     60.984     2.5535   0.002384   0.044633
     3461.1     63.247     60.929     2.5356   0.003959   0.038722
       3461     63.851     60.972     2.5129   0.005206   0.032504
     3460.9     65.181     61.129     2.4945   0.006059   0.026049
     3460.8     66.058     61.364     2.4864   0.006605   0.019953
     3460.7     66.502     61.482     2.4913   0.007178   0.015051
     3460.6      67.31       61.4     2.5057   0.007945   0.012089
     3460.5     68.787     61.253     2.5228   0.008752   0.011282
     3460.4     70.356       61.1     2.5372   0.009693    0.01289
     3460.3     71.274     60.851     2.5475    0.01148   0.016793
     3460.2     71.389     60.429     2.5548   0.014899   0.022384
     3460.1     71.496     60.051     2.5598    0.02074   0.030585
       3460     71.699     59.861     2.5614   0.027091    0.04127
     3459.9      71.07     59.706     2.5583   0.030664   0.053637
     3459.8     70.821     59.569     2.5519   0.028663   0.064747
     3459.7     71.885     59.605     2.5466   0.022243   0.071987
     3459.6     73.358     59.997     2.5462   0.014625   0.074555
     3459.5     75.435      60.41     2.5532   0.009422   0.072891
     3459.4     77.811     60.536      2.565    0.00759   0.069638
     3459.3     78.498     60.467     2.5765   0.008036   0.067973
     3459.2     77.355     60.346     2.5822   0.009289   0.069107
     3459.1     75.771     60.259     2.5811    0.01033    0.07198
       3459     74.775     60.314     2.5742   0.010625   0.074931
     3458.9     75.049      60.43     2.5644   0.010267   0.076305
     3458.8     76.437      60.49      2.553   0.009533   0.075722
     3458.7     77.804     60.511     2.5374   0.008324   0.073737
     3458.6       78.8      60.63     2.5108   0.006089   0.072368
     3458.5     79.574     60.907     2.4684   0.002544   0.073268
     3458.4     79.043     61.193      2.409  -0.001939   0.077422
     3458.3     78.707     61.389     2.3401   -0.00544   0.083841
     3458.2     80.588     61.559     2.2705  -0.006393   0.090727
     3458.1     82.669     61.912     2.2176  -0.003826   0.095465
       3458     83.859     62.444     2.1911   0.000816   0.097238
     3457.9     84.918     62.922     2.1914    0.00471   0.096921
     3457.8      84.31     63.146     2.2198   0.005439   0.096139
     3457.7     82.343     63.035     2.2737   0.002861   0.095578
     3457.6     81.808     62.647     2.3408  -0.000964    0.09478
     3457.5     82.043     62.103     2.4066  -0.003041    0.09248
     3457.4     81.963     61.532     2.4621  -0.002035   0.087673
     3457.3     82.407     61.053     2.5012   0.000683   0.081005
     3457.2     82.548     60.751     2.5245   0.003252   0.073248
     3457.1     81.433     60.698     2.5357   0.004087   0.065972
       3457     80.019     60.854     2.5423    0.00323   0.060578
     3456.9     78.378     61.137     2.5464   0.001024   0.058027
     3456.8     76.401     61.409     2.5474  -0.001727    0.05874
     3456.7     74.754     61.594     2.5456  -0.004143   0.061526
     3456.6     74.683     61.727      2.541   -0.00548   0.065488
     3456.5     77.066     61.824     2.5348  -0.005236    0.06952
     3456.4     80.453     61.764     2.5288  -0.003956   0.072448
     3456.3     83.244     61.551     2.5243  -0.001719     0.0737
     3456.2     84.502     61.359     2.5224   0.001317   0.072982
     3456.1     86.015     61.272     2.5225   0.004541   0.070534
       3456     88.433     61.257     2.5236   0.007081   0.066805
     3455.9     90.491      61.21      2.524   0.008215   0.062903
     3455.8     92.172     61.127     2.5231   0.008003     0.0592
     3455.7     92.763     61.027     2.5213   0.006577   0.056179
     3455.6      90.99      60.91     2.5196   0.004515   0.054349
     3455.5     88.317      60.83     2.5193   0.002493   0.053441
     3455.4     86.821     60.768     2.5211   0.001017   0.053043
     3455.3     86.708     60.603      2.524   0.000114    0.05271
     3455.2     86.622     60.454     2.5267  -0.000456   0.052403
     3455.1     85.293     60.499     2.5281  -0.000813   0.052519
       3455     83.073     60.649     2.5285   -0.00091   0.053461
     3454.9     81.249      60.77     2.5279  -0.000671   0.055107
     3454.8     80.874     60.828      2.526    2.4e-05    0.05682
     3454.7     81.712     60.878     2.5233    0.00131   0.057807
     3454.6     82.942     60.945     2.5202   0.003166   0.057597
     3454.5     83.644     61.042     2.5174   0.005365   0.056416
     3454.4     83.225     61.238     2.5154   0.007481   0.055387
     3454.3     82.781     61.531     2.5147   0.009299   0.055484
     3454.2     83.734      61.79     2.5148   0.010934   0.056765
     3454.1     84.796     61.877     2.5137   0.012269   0.058506
       3454     83.939     61.897     2.5092   0.012984    0.05983
     3453.9      80.78     62.066     2.5011   0.012858   0.060574
     3453.8     76.222      62.24     2.4923   0.011917   0.061137
     3453.7     72.454     62.208     2.4872   0.010409   0.061779
     3453.6     71.063      62.06     2.4882   0.008714   0.062013
     3453.5     71.771     61.961     2.4946   0.007562   0.061037
     3453.4     73.853     62.002     2.5031   0.007646   0.058159
     3453.3     77.277     62.174     2.5107   0.009186   0.053641
     3453.2     80.506     62.485     2.5151   0.011652   0.049506
     3453.1     82.975     62.924     2.5171   0.014163   0.048281
       3453     85.974     63.369     2.5188   0.015868   0.051648
     3452.9     89.312     63.692     2.5217   0.016105   0.059772
     3452.8     91.655     63.789     2.5259   0.014903   0.071887
     3452.7     92.312     63.577     2.5304   0.012751   0.086001
     3452.6     90.617     63.143     2.5335   0.010039   0.098318
     3452.5     86.053     62.626      2.534   0.006756    0.10461
     3452.4     79.553     62.081     2.5322   0.003251    0.10215
     3452.3     73.661     61.566     2.5296   0.000399    0.09198
     3452.2     70.229     61.216     2.5275  -0.000665   0.077921
     3452.1     68.865     61.179     2.5248   0.000427   0.064897
