~Version ---------------------------------------------------
VERS.     2.0 : CWLS log ASCII Standard -VERSION 2.0
WRAP.      NO : ONE LINE PER DEPTH STEP
~Well ------------------------------------------------------
STRT.M                       3986.9004 : First Index Value
STOP.M                       3374.9004 : Last Index Value
STEP.M            -0.09999999999990905 : Frame Spacing
NULL.                          -999.25 : Absent Value
WELL.                        D12-03-S1 : Well Name
FLD .     FINDER_composites_22-02-2005 : Field Name
CNTY.                                  : County
STAT.                                  : State
CTRY.                                  : Country
LOC .                                  : Location
API .                                  : API Number
DATE.                                  : Date
COMP.                              PEN : Company Name
SRVC.                                  : Service Company
~Curves ----------------------------------------------------
DEPT.M         : 
GR  .GAPI      : 
DT  .US/F      : 
RHOB.G/C3      : 
DRHO.G/C3      : 
NPHI.V/V       : 
~Params ----------------------------------------------------
TDL .M            3999.0 : Total Depth (Logger)
TDD .M            3999.0 : Total Depth (Driller)
UBID.               7657 : Unique Borehole Id
PDAT.     Mean Sea Level : Permanent Datum
EPD .M               0.0 : Elevation of Permanent Datum (PDAT) above Mean Sea Level
LMF .       Rotary Table : Logging Measured From (Name of Logging Elevation Reference)
APD .M              34.2 : Elevation of Depth Reference (LMF) Above Permanent Datum
~Other -----------------------------------------------------
~ASCII -----------------------------------------------------
# ...
     3866.9      20.21     66.825     2.5039   0.012444   0.097677
     3866.8     21.016     66.758     2.5098   0.013855   0.097258
     3866.7     22.195     66.762     2.5125   0.014169   0.097114
     3866.6     24.028      66.53     2.5133   0.012652   0.096782
     3866.5     25.435     66.319     2.5101   0.008345   0.095844
     3866.4     25.955     66.312     2.5049    0.00309   0.094767
     3866.3     25.981     66.346     2.5026   0.000448   0.094533
     3866.2     25.426     66.214     2.5018   0.000593    0.09524
     3866.1     24.712     66.246     2.5025   0.002659   0.096697
       3866     24.932     66.954     2.5085   0.005972   0.098755
     3865.9     26.106     67.673      2.519   0.008266    0.10077
     3865.8     28.106     67.841     2.5323   0.007854    0.10219
     3865.7     31.824     67.884     2.5479   0.005469    0.10293
     3865.6     38.339     68.043     2.5599   0.003375    0.10341
     3865.5      47.23     68.204     2.5597   0.002474    0.10514
     3865.4     55.457     68.243     2.5427   0.001785    0.10958
     3865.3     59.891     68.282     2.5156   0.001872    0.11417
     3865.2     58.745     68.628     2.4888   0.003387    0.11571
     3865.1     51.754     69.408     2.4695   0.004788    0.11441
       3865     42.069     70.288     2.4613    0.00575    0.11124
     3864.9     33.714     70.921      2.463   0.006953    0.10833
     3864.8     29.172     71.416     2.4694    0.00751    0.10992
     3864.7     28.483     71.999     2.4761   0.007165    0.11652
     3864.6      30.29     72.739     2.4845   0.006761    0.12492
     3864.5     33.752     73.494     2.4975   0.006426    0.13284
     3864.4     37.811     73.909     2.5147   0.005332     0.1384
     3864.3     41.562     73.592     2.5338   0.002964    0.14104
     3864.2     44.365     72.514     2.5542   0.000568    0.14211
     3864.1     45.882     71.334     2.5737  -0.000644    0.14264
       3864     46.116     70.628     2.5891  -0.000266    0.14226
     3863.9     46.197     69.989     2.6029   0.002117    0.14155
     3863.8     47.584     68.999     2.6169   0.005507    0.14088
     3863.7     51.001     67.945     2.6295   0.008163    0.14043
     3863.6     56.476     66.889     2.6434   0.009922     0.1419
     3863.5     63.194     65.952     2.6583   0.011097      0.147
     3863.4     69.799      65.43     2.6677   0.011242     0.1566
     3863.3     75.283     65.219     2.6683    0.01047    0.17153
     3863.2     79.599      65.08     2.6544   0.008336    0.19093
     3863.1     83.128     65.039     2.6143   0.003808    0.21287
       3863     86.064      65.43     2.5403  -0.002948    0.23764
     3862.9     89.124     67.037     2.4374  -0.010871    0.26811
     3862.8     93.089     70.583      2.325  -0.018617    0.30644
     3862.7      96.83     75.992     2.2244  -0.024919    0.35275
     3862.6     98.783     82.496      2.148  -0.029531    0.40678
     3862.5     98.289     89.446     2.0981  -0.033121    0.46414
     3862.4     94.749     96.854     2.0693  -0.036019    0.51102
     3862.3     88.322     104.06     2.0561  -0.037541    0.53651
     3862.2     80.608     109.89     2.0512   -0.03733    0.54256
     3862.1     73.418     114.32       2.05  -0.035655    0.53397
       3862     67.728     117.25     2.0521  -0.030524    0.51627
     3861.9     63.783     117.87     2.0525  -0.019804    0.49475
     3861.8     62.632     115.05     2.0378  -0.005587    0.46699
     3861.7     65.103     108.43     2.0272   0.015979    0.43316
     3861.6     70.408     99.824     2.0596   0.050415    0.40292
     3861.5     77.754     92.272     2.1331   0.089502    0.38658
     3861.4     85.734     86.804     2.2445    0.12608    0.38839
     3861.3     91.924     82.581     2.3887    0.15603    0.40232
     3861.2     94.599     79.828     2.4973    0.15708    0.40907
     3861.1     93.503     79.338     2.5327    0.11974    0.39612
       3861     89.829     80.684     2.5314   0.065425    0.36869
     3860.9      86.39     81.011     2.5396   0.019392    0.33439
     3860.8     86.224     78.851      2.573  -0.005302    0.30196
     3860.7     90.311     75.513     2.6229  -0.009251    0.27902
     3860.6     97.211     72.331     2.6659  -0.001591    0.26477
     3860.5     103.92     69.996     2.6899   0.010127    0.25621
     3860.4     108.38     68.651     2.7026   0.023608     0.2519
     3860.3      109.1     67.761      2.703   0.029647    0.25091
     3860.2     107.34     66.972     2.6938   0.025021     0.2512
     3860.1     106.12     66.381     2.6872   0.017006    0.25065
       3860     106.45     66.036     2.6897   0.012216    0.25089
     3859.9     107.14     65.868     2.6981   0.011595    0.25367
     3859.8     106.72     65.832      2.708   0.012906    0.25887
     3859.7     104.94     65.859     2.7169   0.014053    0.26351
     3859.6     102.57     65.943     2.7254   0.013821    0.26645
     3859.5     100.13     66.195     2.7352   0.011371    0.26975
     3859.4     99.856     66.323     2.7445   0.007938    0.27425
     3859.3     102.01     66.249     2.7494   0.005447    0.28108
     3859.2     103.94     66.464     2.7455   0.004948    0.29453
     3859.1      105.7     66.786      2.733   0.006857    0.31082
       3859     107.83     66.876     2.7168   0.010413    0.32481
     3858.9     107.52     66.938     2.7032   0.013874    0.33469
     3858.8     106.01     67.186     2.7008   0.021275    0.33957
     3858.7     105.91     67.425     2.7092   0.038106    0.33938
     3858.6     104.98     66.838      2.713   0.068135     0.3334
     3858.5     103.87     66.007      2.697   0.097819    0.32072
     3858.4     105.27     65.945     2.6626    0.11283    0.30216
     3858.3     108.07      65.93      2.634    0.11469    0.28264
     3858.2     112.14     66.011     2.6251    0.10397    0.26298
     3858.1     118.34     66.994     2.6333   0.079707    0.24152
       3858     123.98     67.655     2.6624   0.056941    0.21663
     3857.9     125.76     66.832     2.7031    0.04267    0.18814
     3857.8     122.81     64.982     2.7304   0.028763    0.15996
     3857.7     114.26     63.335     2.7428   0.015105    0.13892
     3857.6      100.4     62.124     2.7516   0.005313    0.12949
     3857.5     84.999     60.389      2.762   0.000874    0.13136
     3857.4     72.277      58.66     2.7645  -0.000365    0.14249
     3857.3     64.773     57.873     2.7515  -0.000465    0.15874
     3857.2     62.214     57.908     2.7329   0.001662    0.17387
     3857.1     66.095     58.937     2.7125   0.004136    0.18584
       3857      76.63     60.924     2.6928   0.004792    0.19427
     3856.9     88.529     62.806     2.6821   0.006541    0.19772
     3856.8     99.821     64.275      2.681   0.008668    0.19776
     3856.7      108.8     65.329     2.6847   0.008711    0.19792
     3856.6     113.23      65.87     2.6903   0.008894    0.19904
     3856.5     113.44     65.956     2.6969    0.00949    0.20095
     3856.4     111.76     65.905     2.7026   0.009044    0.20402
     3856.3     108.43     66.003     2.7077   0.009147    0.20979
     3856.2     104.29     66.373     2.7119   0.010313    0.21823
     3856.1     101.87     66.921      2.714   0.010707    0.22626
       3856      100.7     67.461     2.7125   0.010164    0.23206
     3855.9     100.39     68.135     2.7079   0.009242    0.23373
     3855.8     101.62     69.178      2.704   0.008726    0.23031
     3855.7     103.25     69.877     2.7046    0.01081    0.22493
     3855.6     104.18     69.771      2.712   0.019288    0.22204
     3855.5     105.17     69.604     2.7236    0.03411    0.22417
     3855.4     107.35     69.623     2.7301   0.043826     0.2297
     3855.3     110.93     69.567     2.7281    0.03898    0.23682
     3855.2      114.6     69.475     2.7288   0.027339    0.24642
     3855.1     116.26      69.33     2.7335   0.015424    0.25737
       3855     114.41     68.988     2.7349   0.005084    0.26711
